network,latitude,longitude,city_name,country_name
1.0.0.0/16,-33.494,143.2104,,Australia
1.1.0.0/16,17.8148,103.3386,Ban Chan,Thailand
1.2.0.0/16,13.8667,100.1917,Nakhon Pathom,Thailand
1.4.0.0/16,13.6687,100.579,Bangkok,Thailand
1.6.0.0/16,12.9634,77.5855,Bengaluru,India
1.9.0.0/16,3.1539,101.7448,Ampang,Malaysia
1.10.0.0/16,17.8842,102.7394,Nong Khai,Thailand
1.11.0.0/16,37.5841,127.0616,Dongdaemun-gu,South Korea
1.20.0.0/16,13.5052,102.1872,Wang Nam Yen,Thailand
1.21.0.0/16,35.6384,139.6288,Kamiogi,Japan
1.22.0.0/16,12.9634,77.5855,Bengaluru,India
1.23.0.0/16,19.1963,72.9675,Thane,India
1.32.0.0/16,3.0995,101.6054,Petaling Jaya,Malaysia
1.33.0.0/16,35.6887,139.745,Chiyoda-ku,Japan
1.34.0.0/16,24.9466,121.586,New Taipei,Taiwan
1.35.0.0/16,24.0,121.0,,Taiwan
1.36.0.0/16,22.2908,114.1501,Central,Hong Kong
1.38.0.0/16,22.2904,70.7915,Rajkot,India
1.39.0.0/16,12.9634,77.5855,Bengaluru,India
1.40.0.0/16,-34.4909,150.885,Wollongong,Australia
1.42.0.0/16,-33.3426,151.4407,Berkeley Vale,Australia
1.43.0.0/16,-33.8715,151.2006,Sydney,Australia
1.46.0.0/16,13.7159,100.417,Bang Khae,Thailand
1.47.0.0/16,13.0508,100.9367,Bang Lamung,Thailand
1.49.0.0/16,26.58,106.7223,Guiyang,China
1.52.0.0/16,16.4704,107.6009,Huế,Vietnam
1.53.0.0/16,21.0313,105.8516,Hanoi,Vietnam
1.54.0.0/16,10.8326,106.6581,Ho Chi Minh City,Vietnam
1.55.0.0/16,16.0685,108.2215,Da Nang,Vietnam
1.64.0.0/16,22.2908,114.1501,Central,Hong Kong
1.66.0.0/16,35.6029,140.1187,Chiba,Japan
1.72.0.0/16,35.6913,139.5187,Nukuiminamicho,Japan
1.74.0.0/16,36.1943,139.7073,Koga,Japan
1.75.0.0/16,35.6897,139.6895,,Japan
1.77.0.0/16,34.5951,135.4929,Sakai,Japan
1.81.0.0/16,33.0765,107.0305,Hanzhong,China
1.100.0.0/16,37.5112,126.9741,,South Korea
1.120.0.0/16,-37.8133,144.9826,Melbourne,Australia
1.121.0.0/16,-34.9281,138.5999,Adelaide,Australia
1.122.0.0/16,-31.9474,115.8648,Perth,Australia
1.123.0.0/16,-27.4679,153.0325,Brisbane,Australia
1.126.0.0/16,-31.9307,115.8398,Perth,Australia
1.129.0.0/16,-33.494,143.2104,,Australia
1.136.0.0/16,-37.8159,144.9669,Melbourne,Australia
1.143.0.0/16,-32.2331,115.8067,Kwinana,Australia
1.145.0.0/16,-33.8715,151.2006,Sydney,Australia
1.146.0.0/16,-27.4719,153.0196,Brisbane,Australia
1.147.0.0/16,-34.9281,138.5999,Adelaide,Australia
1.152.0.0/16,-37.8411,144.9799,Melbourne,Australia
1.156.0.0/16,-33.8715,151.2006,Sydney,Australia
1.157.0.0/16,-34.7494,149.7114,Goulburn,Australia
1.158.0.0/16,-33.8715,151.2006,Sydney,Australia
1.159.0.0/16,-37.895,145.0546,Melbourne,Australia
1.160.0.0/16,25.0504,121.5324,Taipei,Taiwan
1.161.0.0/16,24.9259,121.2763,Bade District,Taiwan
1.162.0.0/16,24.9466,121.586,New Taipei,Taiwan
1.163.0.0/16,25.0504,121.5324,Taipei,Taiwan
1.164.0.0/16,24.8065,120.9706,Hsinchu,Taiwan
1.165.0.0/16,24.0759,120.5657,Chang-hua,Taiwan
1.167.0.0/16,25.0504,121.5324,Taipei,Taiwan
1.168.0.0/16,23.9157,120.6639,Nantou City,Taiwan
1.169.0.0/16,25.1322,121.742,Keelung,Taiwan
1.170.0.0/16,24.144,120.6844,Taichung,Taiwan
1.171.0.0/16,25.0504,121.5324,Taipei,Taiwan
1.172.0.0/16,23.5614,119.577,Anshan,Taiwan
1.173.0.0/16,22.6148,120.3139,Kaohsiung City,Taiwan
1.174.0.0/16,22.9917,120.2148,Tainan City,Taiwan
1.175.0.0/16,22.7564,121.1418,Taitung,Taiwan
1.176.0.0/16,35.2317,128.6822,Changwon,South Korea
1.177.0.0/16,36.5742,128.7133,Andong,South Korea
1.178.0.0/16,40.2205,0.2018,Torreblanca,Spain
1.179.0.0/16,14.3755,100.5663,Ayutthaya,Thailand
1.186.0.0/16,13.3512,74.78,Manipal,India
1.187.0.0/16,18.6161,73.7286,Pune,India
1.195.0.0/16,34.6808,112.4531,Luoyang,China
1.200.0.0/16,24.9466,121.586,New Taipei,Taiwan
1.204.0.0/16,26.58,106.7223,Guiyang,China
1.209.0.0/16,37.5355,126.9766,Yongsan-gu,South Korea
1.210.0.0/16,37.4897,127.0639,Gangnam-gu,South Korea
1.211.0.0/16,35.1492,129.1258,Suyeong-gu,South Korea
1.212.0.0/16,37.5015,127.0013,Seocho-gu,South Korea
1.213.0.0/16,35.8723,128.5924,Daegu,South Korea
1.214.0.0/16,37.5813,126.9377,Seodaemun-gu,South Korea
1.215.0.0/16,35.5457,128.499,Changnyeong,South Korea
1.216.0.0/16,36.7836,127.0042,Asan,South Korea
1.217.0.0/16,37.2072,126.8168,Hwaseong-si,South Korea
1.218.0.0/16,35.0904,128.9904,Saha-gu,South Korea
1.219.0.0/16,37.6294,127.0067,Gangbuk-gu,South Korea
1.220.0.0/16,37.4897,127.0639,Gangnam-gu,South Korea
1.221.0.0/16,37.5007,126.7076,Bupyeong-gu,South Korea
1.222.0.0/16,37.2447,127.1752,Yongin-si,South Korea
1.223.0.0/16,35.1266,129.0299,Dong-gu,South Korea
1.224.0.0/16,37.661,126.8324,Goyang-si,South Korea
1.225.0.0/16,37.621,126.9393,Eunpyeong-gu,South Korea
1.226.0.0/16,35.572,129.3302,Jung-gu,South Korea
1.227.0.0/16,37.5576,126.9937,Seoul,South Korea
1.228.0.0/16,36.8039,127.1556,Cheonan,South Korea
1.229.0.0/16,37.7378,127.0533,Uijeongbu-si,South Korea
1.230.0.0/16,37.6559,127.0767,Nowon-gu,South Korea
1.231.0.0/16,37.6559,127.0767,Nowon-gu,South Korea
1.232.0.0/16,37.5576,126.9937,Seoul,South Korea
1.233.0.0/16,37.5576,126.9937,Seoul,South Korea
1.234.0.0/16,37.5794,126.9754,Seocho-gu,South Korea
1.235.0.0/16,37.3907,126.9167,Anyang-si,South Korea
1.236.0.0/16,37.5576,126.9937,Jung-gu,South Korea
1.237.0.0/16,37.4331,127.1377,Seongnam-si,South Korea
1.238.0.0/16,37.0051,127.2735,Anseong,South Korea
1.239.0.0/16,37.8344,127.0615,Yangju,South Korea
1.240.0.0/16,37.6401,127.2212,Namyangju,South Korea
1.241.0.0/16,37.3907,126.9167,Anyang-si,South Korea
1.242.0.0/16,37.3947,126.7814,Siheung-si,South Korea
1.243.0.0/16,37.626,126.7152,Gimpo-si,South Korea
1.244.0.0/16,38.2086,128.5965,Sokcho,South Korea
1.245.0.0/16,36.2742,127.3349,Seo-gu,South Korea
1.246.0.0/16,36.638,127.4838,Cheongju-si,South Korea
1.247.0.0/16,36.7744,126.4514,Seosan City,South Korea
1.248.0.0/16,36.638,127.4838,Cheongju-si,South Korea
1.249.0.0/16,35.1962,126.9248,Buk-gu,South Korea
1.250.0.0/16,35.8237,127.1476,Jeonju,South Korea
1.251.0.0/16,35.8723,128.5924,Daegu,South Korea
1.252.0.0/16,35.1996,128.9874,Buk-gu,South Korea
1.253.0.0/16,35.5335,129.3173,Ulsan,South Korea
1.254.0.0/16,34.9,128.6667,Geoje,South Korea
1.255.0.0/16,35.2317,128.6822,Changwon,South Korea
2.3.0.0/16,46.3311,2.5985,Montluçon,France
2.4.0.0/16,43.8348,4.3624,Nîmes,France
2.5.0.0/16,49.4349,2.0864,Beauvais,France
2.6.0.0/16,45.1734,0.4413,Chanterac,France
2.7.0.0/16,45.2163,5.7665,Meylan,France
2.8.0.0/16,46.7187,-1.9073,Le Fenouiller,France
2.9.0.0/16,44.1906,4.1423,Rousson,France
2.10.0.0/16,47.7468,-3.3644,Lorient,France
2.11.0.0/16,49.2554,2.4773,Creil,France
2.12.0.0/16,47.2689,-2.3365,Pornichet,France
2.13.0.0/16,46.974,-1.4293,Vieillevigne,France
2.14.0.0/16,47.8904,-4.0103,Fouesnant,France
2.15.0.0/16,43.7045,7.2597,Nice,France
2.16.0.0/16,52.3824,4.8995,,Netherlands
2.17.0.0/16,48.9163,2.3869,Aubervilliers,France
2.18.0.0/16,-3.7139,-38.5409,Fortaleza,Brazil
2.19.0.0/16,55.7327,12.3656,Ballerup Municipality,Denmark
2.20.0.0/16,48.1336,11.5658,Munich,Germany
2.21.0.0/16,50.8534,4.347,Brussels,Belgium
2.22.0.0/16,50.1188,8.6843,Frankfurt am Main,Germany
2.23.0.0/16,59.2484,18.1223,Skondal,Sweden
2.24.0.0/16,54.6471,-7.2127,Omagh,United Kingdom
2.25.0.0/16,50.1158,-5.5429,Penzance,United Kingdom
2.26.0.0/16,52.2725,-1.5208,Royal Leamington Spa,United Kingdom
2.27.0.0/16,54.3506,-1.7098,Catterick,United Kingdom
2.28.0.0/16,52.3986,-1.9824,Birmingham,United Kingdom
2.29.0.0/16,54.0677,-2.8565,Morecambe,United Kingdom
2.30.0.0/16,51.9014,0.5454,Braintree,United Kingdom
2.31.0.0/16,52.3128,-1.5033,Royal Leamington Spa,United Kingdom
2.32.0.0/16,37.4844,14.065,Caltanissetta,Italy
2.33.0.0/16,45.5495,9.1607,Cormano,Italy
2.34.0.0/16,45.4722,9.1922,Milan,Italy
2.35.0.0/16,44.4071,8.95,Genoa,Italy
2.36.0.0/16,45.5819,9.2683,Monza,Italy
2.37.0.0/16,45.0978,11.494,Badia Polesine,Italy
2.38.0.0/16,43.6199,11.4681,Figline Valdarno,Italy
2.39.0.0/16,45.5296,9.2737,Cologno Monzese,Italy
2.40.0.0/16,45.0914,7.6639,Turin,Italy
2.41.0.0/16,45.4096,11.8947,Padova,Italy
2.42.0.0/16,44.3607,11.7067,Imola,Italy
2.43.0.0/16,37.5697,14.91,Paternò,Italy
2.44.0.0/16,45.0914,7.6639,Turin,Italy
2.45.0.0/16,44.9986,7.675,Moncalieri,Italy
2.47.0.0/16,45.4722,9.1922,Milan,Italy
2.48.0.0/16,25.7935,55.944,Ras al-Khaimah,United Arab Emirates
2.49.0.0/16,25.2633,55.3087,Dubai,United Arab Emirates
2.50.0.0/16,25.2633,55.3087,Dubai,United Arab Emirates
2.51.0.0/16,25.2633,55.3087,Dubai,United Arab Emirates
2.52.0.0/16,32.1872,34.8206,KfarShmaryahu,Israel
2.53.0.0/16,32.0803,34.7805,Tel Aviv,Israel
2.54.0.0/16,32.0803,34.7805,Tel Aviv,Israel
2.55.0.0/16,32.0803,34.7805,Tel Aviv,Israel
2.56.0.0/16,51.2993,9.491,,Germany
2.57.0.0/16,41.3863,1.652,Vilobi del Penedes,Spain
2.58.0.0/16,52.3824,4.8995,,Netherlands
2.59.0.0/16,51.2993,9.491,,Germany
2.60.0.0/16,54.9978,73.4001,Omsk,Russia
2.61.0.0/16,53.0877,91.3966,Sayanogorsk,Russia
2.62.0.0/16,53.7438,87.0979,Novokuznetsk,Russia
2.63.0.0/16,56.2053,95.7204,Kansk,Russia
2.64.0.0/16,57.7132,12.9025,Borås,Sweden
2.65.0.0/16,56.5158,13.0464,Laholm,Sweden
2.66.0.0/16,59.6323,17.0761,Enkoeping,Sweden
2.67.0.0/16,55.4259,13.8224,Ystad,Sweden
2.68.0.0/16,57.7065,11.967,Gothenburg,Sweden
2.69.0.0/16,56.5544,14.1331,AElmhult,Sweden
2.70.0.0/16,57.7165,11.9708,,Sweden
2.71.0.0/16,59.1027,17.5672,Jaerna,Sweden
2.72.0.0/16,43.2638,76.9293,Almaty,Kazakhstan
2.73.0.0/16,43.2638,76.9293,Almaty,Kazakhstan
2.75.0.0/16,49.8114,73.0933,Karaganda,Kazakhstan
2.76.0.0/16,51.1879,71.4332,Astana,Kazakhstan
2.78.0.0/16,43.2638,76.9293,Almaty,Kazakhstan
2.79.0.0/16,47.1169,51.8853,Atyrau,Kazakhstan
2.80.0.0/16,40.8983,-8.4991,Sao Joao da Madeira,Portugal
2.81.0.0/16,39.4675,-8.4645,Entroncamento,Portugal
2.82.0.0/16,41.1691,-8.6793,Porto,Portugal
2.83.0.0/16,39.9177,-8.6328,Pombal,Portugal
2.84.0.0/16,37.9842,23.7353,Athens,Greece
2.85.0.0/16,40.6439,22.9358,Thessaloniki,Greece
2.86.0.0/16,38.0354,23.8035,Chalandri,Greece
2.87.0.0/16,38.9198,22.6133,Stilís,Greece
2.90.0.0/16,21.423,39.821,Makkah,Saudi Arabia
2.92.0.0/16,53.2859,34.3691,Bryansk,Russia
2.93.0.0/16,52.5882,39.6023,Lipetsk,Russia
2.94.0.0/16,58.0041,56.2397,Perm,Russia
2.95.0.0/16,52.2978,104.2964,Irkutsk,Russia
2.96.0.0/16,51.381,0.115,Orpington,United Kingdom
2.97.0.0/16,51.1367,-2.519,Shepton Mallet,United Kingdom
2.98.0.0/16,52.999,-2.1871,Stoke-on-Trent,United Kingdom
2.99.0.0/16,52.6075,0.0627,Wisbech,United Kingdom
2.100.0.0/16,51.4425,-0.9267,Reading,United Kingdom
2.101.0.0/16,53.0919,-2.3848,Crewe,United Kingdom
2.102.0.0/16,53.3794,-2.9112,Liverpool,United Kingdom
2.103.0.0/16,50.7018,-3.5346,Exeter,United Kingdom
2.104.0.0/16,56.3128,10.4689,Ronde,Denmark
2.105.0.0/16,56.6425,8.5263,Hvidbjerg,Denmark
2.106.0.0/16,56.4394,9.4096,Viborg,Denmark
2.107.0.0/16,55.6808,12.542,Frederiksberg,Denmark
2.108.0.0/16,55.6482,12.6014,Copenhagen,Denmark
2.109.0.0/16,57.0686,9.9196,Norresundby,Denmark
2.111.0.0/16,55.7115,12.4884,Bronshoj,Denmark
2.112.0.0/16,45.0712,11.7834,Rovigo,Italy
2.113.0.0/16,45.4317,10.9859,Verona,Italy
2.114.0.0/16,44.898,10.5514,Boretto,Italy
2.115.0.0/16,41.8904,12.5126,Rome,Italy
2.116.0.0/16,45.0914,7.6639,Turin,Italy
2.117.0.0/16,39.2656,9.0533,Elmas,Italy
2.118.0.0/16,38.1979,15.5563,Messina,Italy
2.119.0.0/16,43.715,13.2135,Senigallia,Italy
2.120.0.0/16,51.5484,0.1716,Dagenham,United Kingdom
2.121.0.0/16,51.3214,-0.5915,Woking,United Kingdom
2.122.0.0/16,52.6726,-2.4488,Telford,United Kingdom
2.123.0.0/16,53.3794,-2.9112,Liverpool,United Kingdom
2.124.0.0/16,53.4113,-2.9759,Liverpool,United Kingdom
2.125.0.0/16,53.4146,-2.8962,Liverpool,United Kingdom
2.126.0.0/16,51.6017,-2.1122,Malmesbury,United Kingdom
2.127.0.0/16,52.9029,-1.5046,Derby,United Kingdom
2.130.0.0/16,55.6824,12.4923,Vanlose,Denmark
2.131.0.0/16,55.6204,12.5934,Kastrup,Denmark
2.133.0.0/16,53.8523,69.768,Tayynsha,Kazakhstan
2.134.0.0/16,42.2994,69.606,Shymkent,Kazakhstan
2.135.0.0/16,53.2852,69.3922,Kokshetau,Kazakhstan
2.136.0.0/16,40.4172,-3.684,,Spain
2.137.0.0/16,28.1202,-15.526,Arucas,Spain
2.138.0.0/16,40.483,-3.9673,Villanueva del Pardillo,Spain
2.139.0.0/16,39.5661,2.6487,Palma,Spain
2.140.0.0/16,40.5971,0.4429,Ulldecona,Spain
2.141.0.0/16,43.3291,-8.3611,Oleiros,Spain
2.142.0.0/16,41.387,2.1701,Barcelona,Spain
2.143.0.0/16,40.4172,-3.684,,Spain
2.147.0.0/16,36.5611,53.0582,Sari,Iran
2.149.0.0/16,59.8636,10.7961,Oslo,Norway
2.150.0.0/16,59.7304,10.2466,Drammen,Norway
2.152.0.0/16,41.9851,2.8242,Girona,Spain
2.153.0.0/16,40.4163,-3.6934,Madrid,Spain
2.154.0.0/16,42.6042,-5.5858,León,Spain
2.155.0.0/16,40.4163,-3.6934,Madrid,Spain
2.160.0.0/16,48.767,9.1827,Stuttgart,Germany
2.174.0.0/16,49.9771,9.1314,Aschaffenburg,Germany
2.179.0.0/16,36.8409,54.4368,Gorgan,Iran
2.183.0.0/16,31.3207,48.6759,Ahvaz,Iran
2.187.0.0/16,34.642,50.8737,Qom,Iran
2.191.0.0/16,35.6944,51.4215,Tehran,Iran
2.193.0.0/16,40.8194,16.413,Gravina in Puglia,Italy
2.196.0.0/16,46.0682,11.114,Trento,Italy
2.197.0.0/16,43.6497,12.3348,Mercatello sul Metauro,Italy
2.198.0.0/16,46.0682,11.114,Trento,Italy
2.199.0.0/16,45.0914,7.6639,Turin,Italy
2.200.0.0/16,52.5312,13.3878,Berlin,Germany
2.201.0.0/16,53.5574,9.9812,Hamburg,Germany
2.202.0.0/16,50.97,11.0385,Erfurt,Germany
2.203.0.0/16,48.1368,11.5077,Munich,Germany
2.204.0.0/16,52.8871,12.4605,Wusterhausen,Germany
2.205.0.0/16,51.0712,13.7434,Dresden,Germany
2.206.0.0/16,51.0289,13.8222,Dresden,Germany
2.207.0.0/16,51.0289,13.8222,Dresden,Germany
2.209.0.0/16,49.4155,11.1262,Nuremberg,Germany
2.211.0.0/16,50.1442,8.6587,Frankfurt am Main,Germany
2.212.0.0/16,51.4504,6.9705,Essen,Germany
2.213.0.0/16,52.5196,13.4603,Berlin,Germany
2.214.0.0/16,53.5544,9.9946,Hamburg,Germany
2.215.0.0/16,48.3461,10.8969,Augsburg,Germany
2.216.0.0/16,52.3728,-2.2522,Kidderminster,United Kingdom
2.217.0.0/16,50.8429,-0.1158,Brighton,United Kingdom
2.218.0.0/16,51.3488,-0.0321,Croydon,United Kingdom
2.219.0.0/16,51.4535,-2.5917,Bristol,United Kingdom
2.220.0.0/16,50.9973,-0.1053,Haywards Heath,United Kingdom
2.221.0.0/16,54.5396,-5.975,Belfast,United Kingdom
2.222.0.0/16,55.9019,-4.4553,Erskine,United Kingdom
2.223.0.0/16,52.0435,1.1842,Ipswich,United Kingdom
2.224.0.0/16,44.844,11.6327,Ferrara,Italy
2.225.0.0/16,45.4722,9.1922,Milan,Italy
2.226.0.0/16,43.8397,13.0125,Fano,Italy
2.228.0.0/16,45.6598,12.5332,Noventa di Piave,Italy
2.229.0.0/16,40.7938,16.7618,Santeramo in Colle,Italy
2.230.0.0/16,45.5349,9.2295,Sesto San Giovanni,Italy
2.231.0.0/16,41.8904,12.5126,Rome,Italy
2.233.0.0/16,45.4722,9.1922,Milan,Italy
2.234.0.0/16,44.488,11.3752,Bologna,Italy
2.235.0.0/16,45.4722,9.1922,Milan,Italy
2.236.0.0/16,43.5428,10.3298,Livorno,Italy
2.237.0.0/16,40.6611,14.8052,Salerno,Italy
2.238.0.0/16,45.4722,9.1922,Milan,Italy
2.239.0.0/16,44.5486,10.9324,Castelnuovo Rangone,Italy
2.241.0.0/16,51.2993,9.491,,Germany
2.243.0.0/16,51.1763,7.1757,Remscheid,Germany
2.244.0.0/16,51.4054,6.7691,Duisburg,Germany
2.248.0.0/16,63.3138,14.8183,Lit,Sweden
2.249.0.0/16,57.801,14.2618,Huskvarna,Sweden
3.0.0.0/16,1.2929,103.8547,,Singapore
3.5.0.0/16,39.0469,-77.4903,Ashburn,United States
3.19.0.0/16,39.9625,-83.0061,Columbus,United States
3.26.0.0/16,-33.8715,151.2006,Sydney,Australia
3.64.0.0/16,50.1188,8.6843,Frankfurt am Main,Germany
3.85.0.0/16,39.0469,-77.4903,Ashburn,United States
3.91.0.0/16,39.0469,-77.4903,Ashburn,United States
3.107.0.0/16,-33.8715,151.2006,Sydney,Australia
3.131.0.0/16,39.9625,-83.0061,Columbus,United States
3.144.0.0/16,39.9625,-83.0061,Columbus,United States
3.210.0.0/16,39.0469,-77.4903,Ashburn,United States
3.212.0.0/16,39.0469,-77.4903,Ashburn,United States
3.216.0.0/16,39.0469,-77.4903,Ashburn,United States
3.219.0.0/16,39.0469,-77.4903,Ashburn,United States
3.222.0.0/16,39.0469,-77.4903,Ashburn,United States
3.224.0.0/16,39.0469,-77.4903,Ashburn,United States
3.227.0.0/16,39.0469,-77.4903,Ashburn,United States
3.230.0.0/16,39.0469,-77.4903,Ashburn,United States
3.234.0.0/16,39.0469,-77.4903,Ashburn,United States
4.1.0.0/16,43.6502,-116.4343,Meridian,United States
4.2.0.0/16,39.696,-105.0346,Denver,United States
4.4.0.0/16,36.1187,-86.2626,Lebanon,United States
4.7.0.0/16,37.3313,-121.8401,San Jose,United States
4.14.0.0/16,40.7365,-74.0055,New York,United States
4.15.0.0/16,29.4227,-98.4927,San Antonio,United States
4.16.0.0/16,35.9274,-89.9189,Blytheville,United States
4.17.0.0/16,30.3562,-81.688,Jacksonville,United States
4.18.0.0/16,40.738,-73.9858,New York,United States
4.19.0.0/16,44.9548,-93.1551,Saint Paul,United States
4.21.0.0/16,34.7518,-82.2556,Simpsonville,United States
4.23.0.0/16,41.0854,-111.9682,Layton,United States
4.26.0.0/16,40.2938,-83.0744,Delaware,United States
4.28.0.0/16,37.4651,-122.143,Palo Alto,United States
4.30.0.0/16,38.8263,-77.2111,Annandale,United States
4.31.0.0/16,30.5045,-97.8209,Cedar Park,United States
4.33.0.0/16,-23.5335,-46.6359,São Paulo,Brazil
4.34.0.0/16,40.1379,-79.9173,Charleroi,United States
4.35.0.0/16,40.7898,-74.1308,North Arlington,United States
4.36.0.0/16,40.8275,-73.1225,Ronkonkoma,United States
4.39.0.0/16,42.3956,-123.3528,Grants Pass,United States
4.49.0.0/16,39.5995,-78.8461,Cumberland,United States
4.53.0.0/16,37.8107,-122.2479,Oakland,United States
4.56.0.0/16,30.2462,-97.8433,Austin,United States
4.59.0.0/16,41.5392,-87.3585,Gary,United States
4.69.0.0/16,39.7684,-86.158,,United States
4.71.0.0/16,32.3478,-86.2811,Montgomery,United States
4.78.0.0/16,29.7646,-95.3657,Houston,United States
4.79.0.0/16,39.1407,-77.1917,Gaithersburg,United States
4.88.0.0/16,33.93,-80.8483,Hopkins,United States
4.154.0.0/16,47.6034,-122.3414,,United States
4.216.0.0/16,35.6893,139.6899,Tokyo,Japan
5.0.0.0/16,35.5171,35.7865,Latakia,Syria
5.2.0.0/16,59.7673,60.1695,Krasnotur'insk,Russia
5.3.0.0/16,55.8698,37.3804,Putilkovo,Russia
5.8.0.0/16,1.2929,103.8547,,Singapore
5.9.0.0/16,51.2993,9.491,,Germany
5.10.0.0/16,50.2433,11.7174,Helmbrechts,Germany
5.11.0.0/16,45.8123,9.8993,Gandino,Italy
5.12.0.0/16,44.405,26.0718,Bucharest,Romania
5.13.0.0/16,45.4518,28.0522,Galati,Romania
5.14.0.0/16,44.177,28.6289,Constanța,Romania
5.15.0.0/16,45.8017,24.1455,Sibiu,Romania
5.17.0.0/16,59.8983,30.2618,St Petersburg,Russia
5.19.0.0/16,59.8983,30.2618,St Petersburg,Russia
5.20.0.0/16,54.5656,23.3446,Marijampolė,Lithuania
5.21.0.0/16,23.6182,58.5945,Muscat,Oman
5.22.0.0/16,60.1717,24.9349,,Finland
5.23.0.0/16,47.1449,8.1551,,Switzerland
5.24.0.0/16,41.0479,28.9773,Istanbul,Turkey
5.25.0.0/16,41.0652,28.9898,Istanbul,Turkey
5.27.0.0/16,39.8959,32.863,Ankara,Turkey
5.28.0.0/16,53.5333,49.3818,Tolyatti,Russia
5.29.0.0/16,32.0803,34.7805,Tel Aviv,Israel
5.31.0.0/16,24.4638,54.363,Abu Dhabi,United Arab Emirates
5.32.0.0/16,25.2633,55.3087,Dubai,United Arab Emirates
5.33.0.0/16,56.1567,10.2153,Aarhus,Denmark
5.34.0.0/16,42.2994,69.606,Shymkent,Kazakhstan
5.35.0.0/16,55.9079,37.7455,Mytishchi,Russia
5.36.0.0/16,23.6182,58.5945,Muscat,Oman
5.37.0.0/16,23.6182,58.5945,Muscat,Oman
5.38.0.0/16,46.7169,20.1487,Csongrad,Hungary
5.39.0.0/16,48.3202,2.7422,La Genevraye,France
5.40.0.0/16,21.423,39.821,Makkah,Saudi Arabia
5.41.0.0/16,21.4849,39.192,Jeddah,Saudi Arabia
5.42.0.0/16,49.1805,-2.0976,Saint Helier,Jersey
5.43.0.0/16,56.8439,60.6524,Yekaterinburg,Russia
5.44.0.0/16,51.0909,-2.5692,Castle Cary,United Kingdom
5.45.0.0/16,52.3385,4.9168,Amsterdam,Netherlands
5.46.0.0/16,41.0197,28.9757,Istanbul,Turkey
5.47.0.0/16,41.0247,28.9252,Istanbul,Turkey
5.48.0.0/16,49.1228,6.1742,Metz,France
5.50.0.0/16,45.748,4.85,Lyon,France
5.51.0.0/16,35.6944,51.4215,Tehran,Iran
5.52.0.0/16,42.627,24.7995,Karlovo,Bulgaria
5.53.0.0/16,37.9842,23.7353,Athens,Greece
5.54.0.0/16,39.644,22.4217,Larissa,Greece
5.55.0.0/16,37.9842,23.7353,Athens,Greece
5.56.0.0/16,48.4179,9.9656,Ulm,Germany
5.57.0.0/16,56.8746,14.8124,Vaxjo,Sweden
5.58.0.0/16,50.0853,14.411,,Czechia
5.59.0.0/16,51.7485,5.7244,Velp,Netherlands
5.60.0.0/16,51.6284,21.8815,Swaty,Poland
5.61.0.0/16,43.2996,13.4471,Macerata,Italy
5.62.0.0/16,19.0,-70.6667,,Dominican Republic
5.63.0.0/16,50.7869,-1.8964,Ferndown,United Kingdom
5.64.0.0/16,51.3724,1.1561,Herne Bay,United Kingdom
5.65.0.0/16,55.8995,-3.5237,Livingston,United Kingdom
5.66.0.0/16,50.8007,-1.0806,Portsmouth,United Kingdom
5.67.0.0/16,52.9994,-1.1318,Nottingham,United Kingdom
5.68.0.0/16,54.608,-5.965,Belfast,United Kingdom
5.69.0.0/16,51.532,0.0884,Barking,United Kingdom
5.70.0.0/16,54.9684,-1.4002,South Shields,United Kingdom
5.71.0.0/16,51.1879,71.4332,Astana,Kazakhstan
5.76.0.0/16,43.1479,12.1097,,Italy
5.77.0.0/16,40.1817,44.5099,Yerevan,Armenia
5.79.0.0/16,55.078,61.6921,Korkino,Russia
5.80.0.0/16,51.5612,0.1827,Romford,United Kingdom
5.81.0.0/16,52.9707,-1.093,Nottingham,United Kingdom
5.82.0.0/16,54.1173,-2.4104,Lancaster,United Kingdom
5.83.0.0/16,45.5862,5.7269,Rochefort,France
5.88.0.0/16,44.799,10.3234,Parma,Italy
5.89.0.0/16,42.5601,12.6507,Terni,Italy
5.90.0.0/16,39.2111,9.1111,,Italy
5.91.0.0/16,41.8904,12.5126,Rome,Italy
5.92.0.0/16,41.8904,12.5126,Rome,Italy
5.93.0.0/16,45.6105,9.1501,Bovisio-Masciago,Italy
5.94.0.0/16,45.4317,10.9859,Verona,Italy
5.95.0.0/16,40.9126,14.1864,Calvizzano,Italy
5.96.0.0/16,45.6873,9.4172,Merate,Italy
5.97.0.0/16,50.1788,10.9544,Grossheirath,Germany
5.99.0.0/16,50.1449,10.4388,Aidhausen,Germany
5.100.0.0/16,51.5095,-0.0955,London,United Kingdom
5.101.0.0/16,45.4722,9.1922,Milan,Italy
5.102.0.0/16,51.1134,10.6407,Bad Langensalza,Germany
5.103.0.0/16,55.7082,9.5299,Vejle,Denmark
5.104.0.0/16,51.8199,5.8715,Nijmegen,Netherlands
5.105.0.0/16,25.3569,55.405,Sharjah,United Arab Emirates
5.107.0.0/16,21.2741,40.4191,Ta'if,Saudi Arabia
5.108.0.0/16,21.4849,39.192,Jeddah,Saudi Arabia
5.109.0.0/16,21.423,39.821,Makkah,Saudi Arabia
5.110.0.0/16,21.4849,39.192,Jeddah,Saudi Arabia
5.111.0.0/16,35.6944,51.4215,Tehran,Iran
5.114.0.0/16,35.6944,51.4215,Tehran,Iran
5.117.0.0/16,33.9824,51.4277,Kashan,Iran
5.121.0.0/16,36.3006,59.5904,Mashhad,Iran
5.123.0.0/16,54.9022,83.0335,Novosibirsk,Russia
5.126.0.0/16,54.9022,83.0335,Novosibirsk,Russia
5.128.0.0/16,54.9022,83.0335,Novosibirsk,Russia
5.129.0.0/16,51.9981,5.6783,Bennekom,Netherlands
5.130.0.0/16,52.0922,5.1268,Utrecht,Netherlands
5.132.0.0/16,52.1306,4.6025,Koudekerk aan den Rijn,Netherlands
5.133.0.0/16,43.8742,12.6564,Saludecio,Italy
5.134.0.0/16,45.5709,5.9883,Barby,France
5.135.0.0/16,48.8582,2.3387,,France
5.136.0.0/16,54.9022,83.0335,Novosibirsk,Russia
5.137.0.0/16,44.109,42.9625,Lermontov,Russia
5.138.0.0/16,45.0355,38.975,Krasnodar,Russia
5.139.0.0/16,56.0763,63.6429,Shadrinsk,Russia
5.140.0.0/16,52.8429,60.3402,Varshavka,Russia
5.141.0.0/16,54.9386,20.1502,Svetlogorsk,Russia
5.142.0.0/16,43.8008,131.9459,Ussuriysk,Russia
5.143.0.0/16,59.2146,39.9059,Vologda,Russia
5.144.0.0/16,50.7932,6.095,Aachen,Germany
5.145.0.0/16,40.4163,-3.6934,Madrid,Spain
5.146.0.0/16,51.2325,6.8556,Düsseldorf,Germany
5.147.0.0/16,52.0633,8.3668,Halle,Germany
5.148.0.0/16,51.5042,-0.2199,London,United Kingdom
5.149.0.0/16,45.5455,12.0645,Noale,Italy
5.150.0.0/16,57.1063,12.2417,Varberg,Sweden
5.151.0.0/16,54.7699,-1.559,Durham,United Kingdom
5.152.0.0/16,37.9921,-1.1201,Murcia,Spain
5.154.0.0/16,48.738,11.1839,Neuburg an der Donau,Germany
5.156.0.0/16,43.1479,12.1097,,Italy
5.157.0.0/16,45.6595,8.6292,Pombia,Italy
5.158.0.0/16,30.281,57.086,Kerman,Iran
5.159.0.0/16,37.751,-97.822,,United States
5.161.0.0/16,23.6182,58.5945,Muscat,Oman
5.162.0.0/16,53.4186,59.0472,Magnitogorsk,Russia
5.164.0.0/16,56.3327,44.0012,Nizhniy Novgorod,Russia
5.165.0.0/16,57.4544,40.562,Nerekhta,Russia
5.166.0.0/16,56.3327,44.0012,Nizhniy Novgorod,Russia
5.167.0.0/16,43.8874,10.6926,Pescia,Italy
5.168.0.0/16,44.488,11.3752,Bologna,Italy
5.169.0.0/16,45.4742,9.1994,,Italy
5.170.0.0/16,45.4096,11.8947,Padova,Italy
5.171.0.0/16,43.1479,12.1097,,Italy
5.172.0.0/16,43.4595,-80.485,Kitchener,Canada
5.173.0.0/16,50.0582,19.9344,Krakow,Poland
5.174.0.0/16,53.1544,17.2654,Wyrzysk,Poland
5.175.0.0/16,51.2993,9.491,,Germany
5.176.0.0/16,41.0214,28.9948,,Turkey
5.177.0.0/16,51.5551,4.6122,Etten,Netherlands
5.178.0.0/16,55.0579,8.9827,Løgumkloster,Denmark
5.179.0.0/16,43.1479,12.1097,,Italy
5.180.0.0/16,51.2993,9.491,,Germany
5.181.0.0/16,42.0681,-72.6256,Springfield,United States
5.182.0.0/16,51.2993,9.491,,Germany
5.183.0.0/16,41.5247,1.7589,Piera,Spain
5.184.0.0/16,50.3514,18.8623,Bytom,Poland
5.185.0.0/16,55.6808,12.542,Frederiksberg,Denmark
5.186.0.0/16,55.3831,12.089,Tureby,Denmark
5.187.0.0/16,55.61,36.6644,Klopovo,Russia
5.188.0.0/16,58.9359,63.9873,Yakshino,Russia
5.189.0.0/16,40.3909,49.8759,Baku,Azerbaijan
5.191.0.0/16,25.7935,55.944,Ras al-Khaimah,United Arab Emirates
5.192.0.0/16,25.2633,55.3087,Dubai,United Arab Emirates
5.193.0.0/16,25.441,55.532,Ajman,United Arab Emirates
5.194.0.0/16,48.8582,2.3387,,France
5.195.0.0/16,48.7926,2.4716,Créteil,France
5.196.0.0/16,48.9456,2.4669,Le Blanc-Mesnil,France
5.197.0.0/16,40.3909,49.8759,Baku,Azerbaijan
5.198.0.0/16,52.2159,6.9091,Enschede,Netherlands
5.199.0.0/16,57.2485,60.0857,Novoural'sk,Russia
5.201.0.0/16,37.9842,23.7353,Athens,Greece
5.203.0.0/16,47.5636,19.0947,Budapest,Hungary
5.204.0.0/16,46.2527,20.154,Szeged,Hungary
5.205.0.0/16,55.3225,8.7723,Ribe,Denmark
5.206.0.0/16,35.6944,51.4215,Tehran,Iran
5.208.0.0/16,35.698,51.4115,,Iran
5.211.0.0/16,35.698,51.4115,,Iran
5.214.0.0/16,32.6575,51.6775,Isfahan,Iran
5.216.0.0/16,42.2393,-8.7224,Vigo,Spain
5.218.0.0/16,42.2917,-5.5235,Valencia de Don Juan,Spain
5.224.0.0/16,43.0097,-7.5521,Lugo,Spain
5.225.0.0/16,37.1918,-3.6095,Granada,Spain
5.226.0.0/16,54.9376,43.3261,Sarov,Russia
5.227.0.0/16,41.0197,28.9757,Istanbul,Turkey
5.228.0.0/16,36.9483,35.3543,Adana,Turkey
5.229.0.0/16,39.9205,32.8372,Ankara,Turkey
5.230.0.0/16,51.2993,9.491,,Germany
5.231.0.0/16,50.4869,7.9313,Berod bei Wallmerod,Germany
5.236.0.0/16,59.5174,17.9217,Upplands Vasby,Sweden
5.238.0.0/16,59.3287,18.0717,Stockholm,Sweden
5.240.0.0/16,56.8169,12.7401,Getinge,Sweden
5.241.0.0/16,57.7065,11.967,Gothenburg,Sweden
5.243.0.0/16,59.3996,17.9484,Kista,Sweden
5.244.0.0/16,26.4336,50.1116,Dammam,Saudi Arabia
5.245.0.0/16,26.4336,50.1116,Dammam,Saudi Arabia
5.246.0.0/16,26.4336,50.1116,Dammam,Saudi Arabia
5.248.0.0/16,41.5515,-8.4204,Braga,Portugal
5.249.0.0/16,38.731,-9.1373,Lisbon,Portugal
5.250.0.0/16,51.7259,75.3224,Ekibastuz,Kazakhstan
5.251.0.0/16,51.5095,-0.0955,London,United Kingdom
5.252.0.0/16,-36.1105,140.3492,Keith,Australia
5.253.0.0/16,51.5095,-0.0955,London,United Kingdom
5.254.0.0/16,25.7689,-80.1946,Miami,United States
5.255.0.0/16,33.6338,-112.2066,Peoria,United States
6.46.0.0/16,37.751,-97.822,,United States
6.50.0.0/16,37.751,-97.822,,United States
6.0.0.0/8,33.7256,-117.9119,Santa Ana,United States
6.143.0.0/16,37.751,-97.822,,United States
6.187.0.0/16,37.751,-97.822,,United States
6.241.0.0/16,42.2803,-71.25,Needham,United States
7.91.0.0/16,42.3474,-71.1582,Brighton,United States
8.0.0.0/16,26.5991,-80.1284,Lake Worth,United States
8.2.0.0/16,38.8732,-77.1151,Arlington,United States
8.3.0.0/16,34.0672,-118.3016,Los Angeles,United States
8.4.0.0/16,37.751,-97.822,,United States
8.7.0.0/16,36.8633,-87.4848,Hopkinsville,United States
8.8.0.0/16,37.8155,-106.925,Creede,United States
8.9.0.0/16,33.4413,-112.0421,Phoenix,United States
8.10.0.0/16,19.4342,-99.0559,,Mexico
8.12.0.0/16,26.1792,-80.1749,Fort Lauderdale,United States
8.14.0.0/16,37.751,-97.822,,United States
8.17.0.0/16,25.9585,-80.1381,Miami,United States
8.18.0.0/16,25.7703,-80.2072,Miami,United States
8.19.0.0/16,25.8489,-80.145,Miami Beach,United States
8.20.0.0/16,42.1867,-73.2065,Monterey,United States
8.21.0.0/16,41.5073,-112.0167,Brigham City,United States
8.22.0.0/16,25.7634,-80.1886,Miami,United States
8.23.0.0/16,25.9823,-80.1405,Hallandale,United States
8.24.0.0/16,33.2109,-117.2232,Vista,United States
8.25.0.0/16,39.7767,-104.2761,Strasburg,United States
8.26.0.0/16,50.1188,8.6843,Frankfurt am Main,Germany
8.27.0.0/16,26.8238,-80.1407,Palm Beach Gardens,United States
8.28.0.0/16,35.7589,-96.487,Depew,United States
8.29.0.0/16,51.4674,-0.3556,Hounslow,United Kingdom
8.30.0.0/16,32.9616,-96.6019,Sachse,United States
8.31.0.0/16,26.8238,-80.1407,Palm Beach Gardens,United States
8.33.0.0/16,37.751,-97.822,,United States
8.34.0.0/16,39.6374,-105.3402,Evergreen,United States
8.35.0.0/16,38.8795,-98.8595,Russell,United States
8.36.0.0/16,39.4401,-99.1056,Woodston,United States
8.37.0.0/16,37.0737,-76.4988,Newport News,United States
8.38.0.0/16,-37.8159,144.9669,Melbourne,Australia
8.39.0.0/16,39.355,-99.843,Hill City,United States
8.40.0.0/16,36.2542,-81.7634,Vilas,United States
8.41.0.0/16,36.1705,-81.8373,Banner Elk,United States
8.42.0.0/16,39.7645,-99.3371,Phillipsburg,United States
8.43.0.0/16,33.3825,-111.875,Mesa,United States
8.44.0.0/16,37.751,-97.822,,United States
8.45.0.0/16,40.5163,-74.2696,Perth Amboy,United States
8.46.0.0/16,43.2207,-77.5992,Rochester,United States
8.47.0.0/16,38.581,-121.4939,Sacramento,United States
8.48.0.0/16,36.1788,-115.1715,Las Vegas,United States
8.53.0.0/16,22.5559,114.0577,Shenzhen,China
8.0.0.0/8,32.8273,-109.6266,Safford,United States
8.135.0.0/16,22.2908,114.1501,Central,Hong Kong
8.193.0.0/16,22.2908,114.1501,Central,Hong Kong
8.210.0.0/16,40.1025,-76.0761,Ephrata,United States
8.218.0.0/16,40.8116,-81.4973,Massillon,United States
8.225.0.0/16,37.751,-97.822,,United States
8.227.0.0/16,19.4339,-99.1965,Mexico City,Mexico
8.238.0.0/16,35.9306,-86.8788,Franklin,United States
8.243.0.0/16,35.4662,-97.5168,,United States
8.253.0.0/16,37.751,-97.822,,United States
11.11.0.0/16,40.8431,-73.2809,Commack,United States
11.0.0.0/8,33.919,-117.2359,Moreno Valley,United States
11.61.0.0/16,39.2619,-76.4992,Dundalk,United States
11.100.0.0/16,40.7429,-73.9392,Flushing,United States
11.113.0.0/16,34.0297,-84.1469,Duluth,United States
11.177.0.0/16,32.6864,-115.5033,Calexico,United States
11.243.0.0/16,32.7797,-96.8022,,United States
12.0.0.0/16,29.7438,-95.4422,Houston,United States
12.1.0.0/16,42.8899,-85.6148,Grand Rapids,United States
12.2.0.0/16,42.6969,-82.8245,New Baltimore,United States
12.3.0.0/16,32.6951,-97.269,Fort Worth,United States
12.4.0.0/16,31.9405,-102.3919,Odessa,United States
12.5.0.0/16,41.8482,-87.6521,Chicago,United States
12.6.0.0/16,29.3627,-98.4886,San Antonio,United States
12.7.0.0/16,33.9152,-118.2419,Compton,United States
12.8.0.0/16,36.5517,-86.9943,Cedar Hill,United States
12.9.0.0/16,38.7943,-90.2817,Florissant,United States
12.10.0.0/16,33.4443,-86.7536,Birmingham,United States
12.11.0.0/16,41.8847,-88.3028,Geneva,United States
12.12.0.0/16,31.1294,-87.0961,Brewton,United States
12.13.0.0/16,35.2952,-96.9591,Shawnee,United States
12.14.0.0/16,43.0127,-85.722,Grand Rapids,United States
12.15.0.0/16,26.7162,-80.0695,West Palm Beach,United States
12.16.0.0/16,33.7485,-84.3871,,United States
12.17.0.0/16,39.7531,-84.2507,Dayton,United States
12.18.0.0/16,30.0516,-95.4707,Spring,United States
12.19.0.0/16,28.3943,-81.3615,Orlando,United States
12.20.0.0/16,34.7528,-92.2792,Little Rock,United States
12.21.0.0/16,39.4987,-119.8202,Reno,United States
12.22.0.0/16,34.2256,-97.4974,Healdton,United States
12.23.0.0/16,37.6873,-121.8957,Pleasanton,United States
12.24.0.0/16,32.5532,-94.7755,Longview,United States
12.25.0.0/16,26.1481,-80.2088,Fort Lauderdale,United States
12.26.0.0/16,40.7429,-73.9392,Flushing,United States
12.27.0.0/16,29.8478,-95.6599,Houston,United States
12.28.0.0/16,42.0048,-87.9954,Elk Grove Village,United States
12.29.0.0/16,34.7456,-92.3419,Little Rock,United States
12.30.0.0/16,35.6409,-120.701,Paso Robles,United States
12.31.0.0/16,40.2116,-85.4273,Muncie,United States
12.32.0.0/16,37.3209,-121.9126,San Jose,United States
12.33.0.0/16,41.9266,-84.6237,Hillsdale,United States
12.34.0.0/16,32.9365,-96.7871,Dallas,United States
12.35.0.0/16,31.8767,-102.4375,Odessa,United States
12.36.0.0/16,29.7373,-95.3972,Houston,United States
12.37.0.0/16,33.9675,-118.1464,Bell Gardens,United States
12.38.0.0/16,37.751,-97.822,,United States
12.39.0.0/16,38.8868,-94.8223,Olathe,United States
12.40.0.0/16,39.7388,-104.9868,Denver,United States
12.41.0.0/16,35.1209,-89.8689,Memphis,United States
12.42.0.0/16,32.4468,-95.3342,Tyler,United States
12.43.0.0/16,32.8008,-96.7884,Dallas,United States
12.44.0.0/16,42.3364,-71.0326,Boston,United States
12.45.0.0/16,32.7203,-117.1552,San Diego,United States
12.46.0.0/16,31.0827,-97.3362,Temple,United States
12.47.0.0/16,30.0249,-90.2526,Kenner,United States
12.48.0.0/16,33.7424,-90.7296,Cleveland,United States
12.49.0.0/16,38.5809,-122.5856,Calistoga,United States
12.50.0.0/16,35.0695,-80.8883,Pineville,United States
12.51.0.0/16,33.5119,-101.9316,Lubbock,United States
12.52.0.0/16,39.7589,-84.0618,Dayton,United States
12.53.0.0/16,40.2884,-75.341,Souderton,United States
12.54.0.0/16,38.1405,-85.6936,Louisville,United States
12.55.0.0/16,31.7596,-106.4884,El Paso,United States
12.66.0.0/16,38.2652,-85.623,Louisville,United States
12.68.0.0/16,38.581,-121.4939,Sacramento,United States
12.69.0.0/16,41.217,-73.0552,Milford,United States
12.70.0.0/16,34.0782,-84.6485,Acworth,United States
12.71.0.0/16,34.7483,-89.4875,Holly Springs,United States
12.86.0.0/16,29.8118,-95.5088,Houston,United States
12.87.0.0/16,42.9516,-88.2963,Waukesha,United States
12.88.0.0/16,31.7745,-93.3205,Robeline,United States
12.89.0.0/16,34.1473,-118.1446,Pasadena,United States
12.90.0.0/16,36.1769,-86.7339,Nashville,United States
12.91.0.0/16,39.5249,-119.8131,Reno,United States
12.94.0.0/16,42.2807,-83.7801,Ann Arbor,United States
12.96.0.0/16,37.6811,-122.4806,Daly City,United States
12.97.0.0/16,37.751,-97.822,,United States
12.98.0.0/16,38.6142,-90.291,St Louis,United States
12.104.0.0/16,25.9972,-80.3259,Hollywood,United States
12.105.0.0/16,32.6378,-96.7087,Hutchins,United States
12.106.0.0/16,35.9698,-86.5061,Smyrna,United States
12.107.0.0/16,36.2519,-94.1344,Lowell,United States
12.108.0.0/16,33.1274,-84.5836,Gay,United States
12.109.0.0/16,28.5436,-81.3738,Orlando,United States
12.110.0.0/16,32.7979,-97.3586,Fort Worth,United States
12.111.0.0/16,33.36,-96.071,Wolfe City,United States
12.116.0.0/16,37.6434,-97.269,Wichita,United States
12.117.0.0/16,32.7097,-117.1228,San Diego,United States
12.118.0.0/16,30.1775,-93.8409,Orange,United States
12.119.0.0/16,42.6854,-83.9127,Howell,United States
12.121.0.0/16,35.8025,-78.6405,Raleigh,United States
12.124.0.0/16,38.2539,-85.76,Louisville,United States
12.125.0.0/16,36.033,-80.3916,Clemmons,United States
12.126.0.0/16,30.6483,-88.2297,Mobile,United States
12.127.0.0/16,37.751,-97.822,,United States
12.129.0.0/16,27.5153,-99.4978,Laredo,United States
12.130.0.0/16,33.5637,-84.2112,Stockbridge,United States
12.131.0.0/16,41.8502,-87.6736,Chicago,United States
12.132.0.0/16,35.1649,-92.7323,Morrilton,United States
12.133.0.0/16,34.2147,-88.9883,Pontotoc,United States
12.138.0.0/16,41.9032,-87.6383,Chicago,United States
12.139.0.0/16,39.5381,-119.8365,Reno,United States
12.144.0.0/16,38.6474,-90.2055,St Louis,United States
12.145.0.0/16,33.9406,-83.9563,Lawrenceville,United States
12.146.0.0/16,42.0211,-86.5104,Stevensville,United States
12.147.0.0/16,42.5881,-88.4554,Lake Geneva,United States
12.148.0.0/16,26.4556,-80.0643,Delray Beach,United States
12.149.0.0/16,37.6584,-84.6014,Lancaster,United States
12.150.0.0/16,42.6915,-71.1579,Lawrence,United States
12.151.0.0/16,29.9495,-89.9621,Chalmette,United States
12.152.0.0/16,43.0361,-75.3962,Franklin Springs,United States
12.153.0.0/16,38.5809,-122.5856,Calistoga,United States
12.154.0.0/16,43.0648,-88.0945,Brookfield,United States
12.155.0.0/16,34.1892,-92.0495,Pine Bluff,United States
12.156.0.0/16,41.7811,-87.8281,Summit,United States
12.157.0.0/16,39.8621,-86.0115,Indianapolis,United States
12.158.0.0/16,41.5092,-87.5938,Chicago Heights,United States
12.159.0.0/16,33.1063,-86.7583,Calera,United States
12.160.0.0/16,40.0558,-75.0773,Philadelphia,United States
12.161.0.0/16,35.2296,-80.843,,United States
12.162.0.0/16,30.5875,-97.8535,Leander,United States
12.163.0.0/16,36.1052,-86.6591,Nashville,United States
12.164.0.0/16,32.7825,-97.2993,Fort Worth,United States
12.165.0.0/16,30.1244,-91.9526,Broussard,United States
12.166.0.0/16,39.0405,-94.4903,Kansas City,United States
12.167.0.0/16,33.906,-84.184,Norcross,United States
12.168.0.0/16,39.0405,-94.4903,Kansas City,United States
12.169.0.0/16,33.4979,-86.8125,Birmingham,United States
12.170.0.0/16,32.5468,-98.3591,Gordon,United States
12.171.0.0/16,33.5226,-86.8033,,United States
12.172.0.0/16,32.2604,-90.0897,Pearl,United States
12.173.0.0/16,34.9347,-79.7672,Rockingham,United States
12.174.0.0/16,31.7884,-94.1898,Center,United States
12.175.0.0/16,41.8597,-87.8612,Broadview,United States
12.176.0.0/16,32.7254,-97.3208,Fort Worth,United States
12.177.0.0/16,32.6065,-117.058,Chula Vista,United States
12.178.0.0/16,40.2116,-85.4273,Muncie,United States
12.179.0.0/16,40.7257,-73.3287,North Babylon,United States
12.180.0.0/16,33.9259,-86.4741,Oneonta,United States
12.181.0.0/16,37.751,-97.822,,United States
12.182.0.0/16,32.6047,-93.8761,Shreveport,United States
12.183.0.0/16,25.8117,-80.2067,Miami,United States
12.184.0.0/16,34.1483,-118.0016,Monrovia,United States
12.185.0.0/16,38.7373,-121.2322,Roseville,United States
12.186.0.0/16,37.2117,-93.299,Springfield,United States
12.187.0.0/16,38.6332,-90.2176,St Louis,United States
12.188.0.0/16,36.0571,-86.6729,Nashville,United States
12.189.0.0/16,36.1168,-80.0837,Kernersville,United States
12.190.0.0/16,28.6344,-81.6221,,United States
12.191.0.0/16,41.5434,-89.1136,Mendota,United States
12.192.0.0/16,40.6472,-73.9405,Brooklyn,United States
12.193.0.0/16,36.1769,-86.7339,Nashville,United States
12.195.0.0/16,30.3899,-98.0539,Spicewood,United States
12.196.0.0/16,32.7685,-96.6809,Dallas,United States
12.197.0.0/16,37.751,-97.822,,United States
12.198.0.0/16,38.581,-121.4939,Sacramento,United States
12.199.0.0/16,35.1512,-89.972,Memphis,United States
12.200.0.0/16,39.2051,-85.9324,Columbus,United States
12.201.0.0/16,35.4155,-80.6143,Concord,United States
12.202.0.0/16,34.0767,-118.1802,Los Angeles,United States
12.203.0.0/16,35.7445,-95.3451,Muskogee,United States
12.204.0.0/16,41.7284,-86.2444,South Bend,United States
12.205.0.0/16,35.3084,-81.0256,Mount Holly,United States
12.206.0.0/16,30.6156,-87.3211,Cantonment,United States
12.207.0.0/16,35.2338,-97.4095,Norman,United States
12.208.0.0/16,32.4916,-87.8389,Demopolis,United States
12.215.0.0/16,32.7297,-96.0124,Wills Point,United States
12.216.0.0/16,39.9664,-75.1685,Philadelphia,United States
12.217.0.0/16,42.3255,-83.0415,Detroit,United States
12.218.0.0/16,38.731,-90.1097,Granite City,United States
12.219.0.0/16,38.1385,-92.6654,Osage Beach,United States
12.220.0.0/16,42.1643,-88.3124,Algonquin,United States
12.221.0.0/16,35.3274,-97.5556,Oklahoma City,United States
12.222.0.0/16,42.8859,-71.299,Derry,United States
12.226.0.0/16,37.9935,-121.7015,Oakley,United States
12.227.0.0/16,31.0361,-83.09,Lakeland,United States
12.228.0.0/16,40.3228,-86.8881,Lafayette,United States
12.229.0.0/16,41.0413,-83.6461,Findlay,United States
12.230.0.0/16,39.4972,-119.7764,Reno,United States
12.231.0.0/16,34.1765,-118.614,Woodland Hills,United States
12.232.0.0/16,40.6469,-73.9344,Brooklyn,United States
12.233.0.0/16,35.9936,-96.5242,Drumright,United States
12.234.0.0/16,39.5084,-85.79,Shelbyville,United States
12.235.0.0/16,37.5281,-121.9732,Fremont,United States
12.236.0.0/16,35.8093,-120.9728,Bradley,United States
12.237.0.0/16,41.1701,-81.4424,Stow,United States
12.238.0.0/16,38.6169,-95.2798,Ottawa,United States
12.239.0.0/16,33.4979,-86.8125,Birmingham,United States
12.244.0.0/16,33.454,-84.1534,McDonough,United States
12.245.0.0/16,37.5855,-120.9453,Ceres,United States
12.246.0.0/16,39.6757,-86.0694,Indianapolis,United States
12.247.0.0/16,43.2343,-88.2311,Hubertus,United States
12.248.0.0/16,36.8878,-119.7589,Fresno,United States
12.249.0.0/16,38.8957,-77.0443,Washington,United States
12.250.0.0/16,21.3454,-158.0842,Kapolei,United States
12.251.0.0/16,39.6916,-86.3911,Plainfield,United States
12.252.0.0/16,37.751,-97.822,,United States
13.17.0.0/16,51.5095,-0.0955,London,United Kingdom
13.34.0.0/16,39.0469,-77.4903,Ashburn,United States
13.39.0.0/16,53.3379,-6.2591,Dublin,Ireland
13.57.0.0/16,37.751,-97.822,,United States
13.74.0.0/16,35.1025,129.0394,Busan,South Korea
13.88.0.0/16,41.8874,-87.6318,Chicago,United States
13.104.0.0/16,35.1025,129.0394,Busan,South Korea
13.105.0.0/16,37.5794,126.9754,Seoul,South Korea
13.106.0.0/16,19.0748,72.8856,Mumbai,India
13.107.0.0/16,37.751,-97.822,,United States
13.110.0.0/16,1.2929,103.8547,,Singapore
13.0.0.0/8,-33.8715,151.2006,Sydney,Australia
13.215.0.0/16,59.3287,18.0717,Stockholm,Sweden
13.236.0.0/16,22.2908,114.1501,Central,Hong Kong
13.248.0.0/16,-40.3761,175.5809,Palmerston North,New Zealand
14.0.0.0/16,-36.8693,174.811,Auckland,New Zealand
14.1.0.0/16,-37.6846,176.162,Tauranga,New Zealand
14.2.0.0/16,35.6887,139.745,Chiyoda-ku,Japan
14.3.0.0/16,35.6893,139.6899,Tokyo,Japan
14.4.0.0/16,37.7378,127.0533,Uijeongbu-si,South Korea
14.5.0.0/16,37.4897,127.0639,Gangnam-gu,South Korea
14.6.0.0/16,37.5576,126.9937,Seoul,South Korea
14.7.0.0/16,37.6559,127.0767,Nowon-gu,South Korea
14.8.0.0/16,37.907,139.03,Niigata,Japan
14.9.0.0/16,38.2454,140.3336,Kasumicho,Japan
14.10.0.0/16,35.1743,136.8931,Meieki,Japan
14.11.0.0/16,33.5114,130.5144,Dazaifu,Japan
14.12.0.0/16,33.2251,131.6078,Ōita,Japan
14.13.0.0/16,34.2232,135.1735,Wakayama,Japan
14.14.0.0/16,35.6472,139.468,Tama,Japan
14.15.0.0/16,22.5559,114.0577,Shenzhen,China
14.21.0.0/16,37.5794,126.9754,Gangnam-gu,South Korea
14.28.0.0/16,37.5576,126.9937,Seoul,South Korea
14.32.0.0/16,37.2872,127.0116,Suwon,South Korea
14.33.0.0/16,37.4585,126.7015,Incheon,South Korea
14.34.0.0/16,37.3947,126.7814,Siheung-si,South Korea
14.35.0.0/16,37.2072,126.8168,Hwaseong-si,South Korea
14.36.0.0/16,37.4676,126.62,Jung-gu,South Korea
14.37.0.0/16,37.6559,127.0767,Nowon-gu,South Korea
14.38.0.0/16,37.5841,127.0616,Dongdaemun-gu,South Korea
14.39.0.0/16,37.5841,127.0616,Dongdaemun-gu,South Korea
14.40.0.0/16,37.7562,126.7865,Paju,South Korea
14.41.0.0/16,35.1362,129.0783,Nam-gu,South Korea
14.42.0.0/16,35.1025,129.0394,Busan,South Korea
14.43.0.0/16,35.8591,128.6262,Suseong-gu,South Korea
14.44.0.0/16,36.0812,129.3603,Pohang,South Korea
14.45.0.0/16,35.824,128.7304,Gyeongsan-si,South Korea
14.46.0.0/16,37.2872,127.0116,Suwon,South Korea
14.47.0.0/16,34.9716,127.461,Suncheon,South Korea
14.48.0.0/16,37.5112,126.9741,,South Korea
14.49.0.0/16,36.3733,127.3245,Yuseong-gu,South Korea
14.50.0.0/16,37.3907,126.9167,Anyang-si,South Korea
14.51.0.0/16,37.3463,126.9711,Uiwang-si,South Korea
14.52.0.0/16,37.5945,127.1321,Guri-si,South Korea
14.53.0.0/16,37.3468,127.9424,Wonju,South Korea
14.54.0.0/16,37.5112,126.9741,,South Korea
14.55.0.0/16,38.0948,127.0784,Yeoncheon-gun,South Korea
14.56.0.0/16,37.5948,127.1126,Jungnang-gu,South Korea
14.58.0.0/16,37.5112,126.9741,,South Korea
14.63.0.0/16,18.6161,73.7286,Pune,India
14.80.0.0/16,22.9644,76.0473,Dewas,India
14.96.0.0/16,12.9634,77.5855,Bengaluru,India
14.97.0.0/16,22.3008,73.2043,Vadodara,India
14.98.0.0/16,12.9634,77.5855,Bengaluru,India
14.99.0.0/16,35.7914,139.2621,Ome,Japan
14.101.0.0/16,26.4284,82.537,Akbarpur,India
14.102.0.0/16,28.6542,77.2373,Delhi,India
14.106.0.0/16,22.2767,113.5788,Zhuhai,China
14.116.0.0/16,34.9656,136.6212,Yokkaichi,Japan
14.125.0.0/16,34.9701,136.6171,Yokkaichi,Japan
14.132.0.0/16,35.1743,136.8931,Meieki,Japan
14.133.0.0/16,35.3543,137.1812,Toki,Japan
14.136.0.0/16,-36.8693,174.811,Auckland,New Zealand
14.137.0.0/16,-36.8597,174.764,Auckland,New Zealand
14.138.0.0/16,17.411,78.4487,Hyderabad,India
14.139.0.0/16,32.1184,76.5556,Palampur,India
14.140.0.0/16,18.6161,73.7286,Pune,India
14.141.0.0/16,19.1963,72.9675,Thane,India
14.142.0.0/16,12.8996,80.2209,Chennai,India
14.143.0.0/16,23.1181,113.2539,Guangzhou,China
14.145.0.0/16,23.1181,113.2539,Guangzhou,China
14.150.0.0/16,21.0313,105.8516,Hanoi,Vietnam
14.160.0.0/16,10.8326,106.6581,Ho Chi Minh City,Vietnam
14.161.0.0/16,20.4164,106.1706,Nam Định,Vietnam
14.162.0.0/16,20.9333,106.8,Quang Yen,Vietnam
14.163.0.0/16,9.1771,105.1464,Ca Mau,Vietnam
14.164.0.0/16,14.3505,107.9969,Kon Tum,Vietnam
14.165.0.0/16,20.4487,106.3343,Thai Binh,Vietnam
14.166.0.0/16,21.5941,105.8432,Thai Nguyen,Vietnam
14.167.0.0/16,10.8326,106.6581,Ho Chi Minh City,Vietnam
14.168.0.0/16,10.8326,106.6581,Ho Chi Minh City,Vietnam
14.169.0.0/16,20.4487,106.3343,Thai Binh,Vietnam
14.170.0.0/16,21.0313,105.8516,Hanoi,Vietnam
14.171.0.0/16,11.649,106.5936,Binh Long,Vietnam
14.172.0.0/16,10.0359,105.7808,Can Tho,Vietnam
14.173.0.0/16,16.0685,108.2215,Da Nang,Vietnam
14.174.0.0/16,12.8593,108.4051,Tan Tien,Vietnam
14.175.0.0/16,12.8593,108.4051,Tan Tien,Vietnam
14.176.0.0/16,21.0313,105.8516,Hanoi,Vietnam
14.177.0.0/16,9.6056,105.9799,Soc Trang,Vietnam
14.178.0.0/16,10.3498,107.067,Vũng Tàu,Vietnam
14.179.0.0/16,21.0313,105.8516,Hanoi,Vietnam
14.180.0.0/16,20.8567,106.6826,Haiphong,Vietnam
14.181.0.0/16,21.2749,106.1933,Bac Giang,Vietnam
14.182.0.0/16,9.6056,105.9799,Soc Trang,Vietnam
14.183.0.0/16,10.4534,105.6331,Cao Lanh,Vietnam
14.184.0.0/16,11.9799,107.7046,Gia Nghia,Vietnam
14.185.0.0/16,10.8326,106.6581,Ho Chi Minh City,Vietnam
14.186.0.0/16,10.8326,106.6581,Ho Chi Minh City,Vietnam
14.187.0.0/16,22.8315,104.9847,Ha Giang,Vietnam
14.188.0.0/16,20.8,105.35,Phuong Lam,Vietnam
14.189.0.0/16,21.4978,106.3291,Huu Lung,Vietnam
14.190.0.0/16,10.8326,106.6581,Ho Chi Minh City,Vietnam
14.191.0.0/16,28.6542,77.2373,Delhi,India
14.192.0.0/16,3.0995,101.6054,Petaling Jaya,Malaysia
14.193.0.0/16,22.2908,114.1501,Central,Hong Kong
14.194.0.0/16,22.5168,114.1149,Sheung Shui,Hong Kong
14.198.0.0/16,22.2908,114.1501,Central,Hong Kong
14.199.0.0/16,-33.8715,151.2006,Sydney,Australia
14.200.0.0/16,-33.8715,151.2006,Sydney,Australia
14.201.0.0/16,-37.8159,144.9669,Melbourne,Australia
14.202.0.0/16,-27.4437,153.0244,Brisbane,Australia
14.203.0.0/16,13.0508,100.9367,Bang Lamung,Thailand
14.207.0.0/16,23.5019,113.2537,,China
14.209.0.0/16,21.0313,105.8516,Hanoi,Vietnam
14.221.0.0/16,20.8567,106.6826,Haiphong,Vietnam
14.224.0.0/16,16.4704,107.6009,Huế,Vietnam
14.225.0.0/16,10.422,106.422,Long An,Vietnam
14.226.0.0/16,10.0359,105.7808,Can Tho,Vietnam
14.227.0.0/16,21.0313,105.8516,Hanoi,Vietnam
14.228.0.0/16,21.8802,104.6794,Hong Ha,Vietnam
14.229.0.0/16,9.6056,105.9799,Soc Trang,Vietnam
14.230.0.0/16,21.0313,105.8516,Hanoi,Vietnam
14.231.0.0/16,21.0313,105.8516,Hanoi,Vietnam
14.232.0.0/16,11.9799,107.7046,Gia Nghia,Vietnam
14.233.0.0/16,10.8326,106.6581,Ho Chi Minh City,Vietnam
14.234.0.0/16,18.3,105.3667,Phu Quan,Vietnam
14.235.0.0/16,12.6863,108.5605,Thon Mot A,Vietnam
14.236.0.0/16,10.8326,106.6581,Ho Chi Minh City,Vietnam
14.237.0.0/16,18.8401,105.6443,Xom Muoi Sau,Vietnam
14.238.0.0/16,21.3078,105.4229,Viet Tri,Vietnam
14.239.0.0/16,10.8326,106.6581,Ho Chi Minh City,Vietnam
14.240.0.0/16,14.4692,109.0698,My Tho,Vietnam
14.241.0.0/16,10.8023,105.2388,Tan Chau,Vietnam
14.242.0.0/16,21.0313,105.8516,Hanoi,Vietnam
14.243.0.0/16,10.8326,106.6581,Ho Chi Minh City,Vietnam
14.244.0.0/16,16.4704,107.6009,Huế,Vietnam
14.245.0.0/16,10.9413,106.8221,Bien Hoa,Vietnam
14.246.0.0/16,21.0313,105.8516,Hanoi,Vietnam
14.247.0.0/16,20.9472,107.0833,Ha Long,Vietnam
14.248.0.0/16,21.8802,104.6794,Hong Ha,Vietnam
14.249.0.0/16,12.2539,109.1832,Nha Trang,Vietnam
14.250.0.0/16,18.3833,105.7333,Truong Son,Vietnam
14.251.0.0/16,10.8326,106.6581,Ho Chi Minh City,Vietnam
14.252.0.0/16,18.6656,105.6652,Vinh,Vietnam
14.253.0.0/16,9.7871,105.4705,Vi Thanh,Vietnam
14.254.0.0/16,14.55,108.9833,My Binh,Vietnam
14.255.0.0/16,47.6034,-122.3414,,United States
15.65.0.0/16,37.751,-97.822,,United States
15.158.0.0/16,37.751,-97.822,,United States
15.0.0.0/8,45.5397,-122.9638,Hillsboro,United States
15.189.0.0/16,-23.5335,-46.6359,São Paulo,Brazil
15.204.0.0/16,1.2929,103.8547,,Singapore
15.220.0.0/16,34.6946,135.5021,Osaka,Japan
15.230.0.0/16,1.2929,103.8547,,Singapore
15.235.0.0/16,59.3287,18.0717,Stockholm,Sweden
15.251.0.0/16,33.4979,-86.8125,Birmingham,United States
16.16.0.0/16,37.751,-97.822,,United States
16.98.0.0/16,22.2908,114.1501,Central,Hong Kong
16.0.0.0/8,37.751,-97.822,,United States
17.1.0.0/16,37.7562,-122.4866,San Francisco,United States
17.11.0.0/16,32.913,-96.6369,Garland,United States
17.16.0.0/16,37.751,-97.822,,United States
17.18.0.0/16,38.6287,-90.1988,St Louis,United States
17.21.0.0/16,37.3177,-122.0438,Cupertino,United States
17.25.0.0/16,35.5759,-81.1745,Maiden,United States
17.28.0.0/16,37.751,-97.822,,United States
17.40.0.0/16,37.751,-97.822,,United States
17.43.0.0/16,37.751,-97.822,,United States
17.45.0.0/16,48.8323,2.4075,Paris,France
17.52.0.0/16,52.3718,9.7308,Hanover,Germany
17.68.0.0/16,51.4535,-2.5917,Bristol,United Kingdom
17.71.0.0/16,37.751,-97.822,,United States
17.74.0.0/16,37.751,-97.822,,United States
17.77.0.0/16,37.751,-97.822,,United States
17.78.0.0/16,34.7732,113.722,,China
17.79.0.0/16,31.3862,120.9496,Kunshan,China
17.80.0.0/16,1.2929,103.8547,,Singapore
17.81.0.0/16,35.4346,139.6483,Yokohama,Japan
17.82.0.0/16,34.7732,113.722,,China
17.83.0.0/16,37.751,-97.822,,United States
17.87.0.0/16,32.0589,118.7738,Nanjing,China
17.91.0.0/16,51.6771,5.0777,Waalwijk,Netherlands
17.93.0.0/16,37.751,-97.822,,United States
17.101.0.0/16,37.7618,-121.9133,San Ramon,United States
17.107.0.0/16,37.5172,-121.9191,Fremont,United States
17.114.0.0/16,17.9962,-76.8019,Kingston,Jamaica
17.115.0.0/16,37.751,-97.822,,United States
17.118.0.0/16,37.751,-97.822,,United States
17.119.0.0/16,37.751,-97.822,,United States
17.126.0.0/16,30.2627,-97.7467,Austin,United States
17.140.0.0/16,37.3177,-122.0438,Cupertino,United States
17.168.0.0/16,37.3897,-122.0832,Mountain View,United States
17.190.0.0/16,37.751,-97.822,,United States
17.199.0.0/16,37.751,-97.822,,United States
17.211.0.0/16,37.3028,-121.9982,San Jose,United States
17.222.0.0/16,30.5045,-97.8209,Cedar Park,United States
17.230.0.0/16,37.751,-97.822,,United States
17.232.0.0/16,37.7642,-122.3993,San Francisco,United States
17.233.0.0/16,34.0014,-84.0144,Lawrenceville,United States
17.236.0.0/16,37.751,-97.822,,United States
17.248.0.0/16,37.1835,-121.7714,San Jose,United States
17.253.0.0/16,42.3649,-71.0987,Cambridge,United States
17.255.0.0/16,42.3649,-71.0987,Cambridge,United States
18.10.0.0/16,33.4683,-112.0549,Phoenix,United States
18.21.0.0/16,37.751,-97.822,,United States
18.68.0.0/16,22.2578,114.1657,,Hong Kong
18.131.0.0/16,22.2578,114.1657,,Hong Kong
18.162.0.0/16,40.7494,-73.9664,New York,United States
18.167.0.0/16,40.7494,-73.9664,New York,United States
18.204.0.0/16,39.0469,-77.4903,Ashburn,United States
18.209.0.0/16,39.9625,-83.0061,Columbus,United States
18.212.0.0/16,39.9625,-83.0061,Columbus,United States
18.217.0.0/16,39.0469,-77.4903,Ashburn,United States
18.221.0.0/16,42.3212,-83.266,Dearborn,United States
18.234.0.0/16,51.5095,-0.0955,London,United Kingdom
19.12.0.0/16,1.2929,103.8547,,Singapore
20.0.0.0/16,37.751,-97.822,,United States
20.24.0.0/16,36.6534,-78.375,Boydton,United States
20.34.0.0/16,51.5095,-0.0955,London,United Kingdom
20.35.0.0/16,29.4227,-98.4927,San Antonio,United States
20.39.0.0/16,35.6893,139.6899,Tokyo,Japan
20.45.0.0/16,52.3759,4.8975,Amsterdam,Netherlands
20.47.0.0/16,1.2929,103.8547,,Singapore
20.56.0.0/16,47.6034,-122.3414,,United States
20.60.0.0/16,-33.8715,151.2006,Sydney,Australia
20.69.0.0/16,37.751,-97.822,,United States
20.92.0.0/16,36.6534,-78.375,Boydton,United States
20.95.0.0/16,37.9176,-76.9092,Tappahannock,United States
20.110.0.0/16,-34.0486,18.4811,Cape Town,South Africa
20.127.0.0/16,37.751,-97.822,,United States
20.135.0.0/16,36.6534,-78.375,Boydton,United States
20.136.0.0/16,37.1835,-121.7714,San Jose,United States
20.140.0.0/16,43.6547,-79.3623,Toronto,Canada
20.150.0.0/16,37.9176,-76.9092,Tappahannock,United States
20.151.0.0/16,55.6078,12.9982,Malmo,Sweden
20.157.0.0/16,37.9176,-76.9092,Tappahannock,United States
20.172.0.0/16,46.7949,-71.247,Québec,Canada
20.190.0.0/16,34.6946,135.5021,Osaka,Japan
20.200.0.0/16,22.2908,114.1501,Central,Hong Kong
20.202.0.0/16,35.1025,129.0394,Busan,South Korea
20.205.0.0/16,37.9176,-76.9092,Tappahannock,United States
20.214.0.0/16,37.751,-97.822,,United States
20.232.0.0/16,37.751,-97.822,,United States
21.14.0.0/16,37.751,-97.822,,United States
21.39.0.0/16,37.751,-97.822,,United States
21.150.0.0/16,37.751,-97.822,,United States
21.214.0.0/16,37.751,-97.822,,United States
22.0.0.0/8,34.0544,-118.244,,United States
22.70.0.0/16,34.0544,-118.244,,United States
22.214.0.0/16,19.0748,72.8856,Mumbai,India
23.1.0.0/16,25.7689,-80.1946,Miami,United States
23.3.0.0/16,37.751,-97.822,,United States
23.4.0.0/16,47.4348,8.5629,Glattbrugg,Switzerland
23.7.0.0/16,25.7689,-80.1946,Miami,United States
23.10.0.0/16,-33.4513,-70.6653,Santiago,Chile
23.12.0.0/16,25.7689,-80.1946,Miami,United States
23.14.0.0/16,52.5196,13.4069,Berlin,Germany
23.15.0.0/16,48.4777,-123.3658,Victoria,Canada
23.16.0.0/16,50.2592,-119.2714,Vernon,Canada
23.17.0.0/16,34.0544,-118.244,Los Angeles,United States
23.19.0.0/16,39.0469,-77.4903,Ashburn,United States
23.22.0.0/16,39.587,-75.6112,New Castle,United States
23.24.0.0/16,40.185,-75.0041,Southampton,United States
23.25.0.0/16,41.5548,-87.6593,Homewood,United States
23.26.0.0/16,42.2876,-83.3734,Westland,United States
23.28.0.0/16,42.558,-82.998,Sterling Heights,United States
23.29.0.0/16,42.3314,-103.0589,Hemingford,United States
23.30.0.0/16,38.894,-77.0365,Washington,United States
23.31.0.0/16,25.8132,-80.1862,Miami,United States
23.32.0.0/16,12.8996,80.2209,Chennai,India
23.33.0.0/16,35.6893,139.6899,Tokyo,Japan
23.34.0.0/16,35.6893,139.6899,Tokyo,Japan
23.35.0.0/16,1.2929,103.8547,,Singapore
23.36.0.0/16,47.6034,-122.3414,Seattle,United States
23.39.0.0/16,34.0544,-118.2441,Los Angeles,United States
23.40.0.0/16,22.2908,114.1501,Central,Hong Kong
23.42.0.0/16,40.7282,-73.1805,East Islip,United States
23.43.0.0/16,33.9214,-118.413,El Segundo,United States
23.44.0.0/16,40.7425,-73.9877,New York,United States
23.45.0.0/16,33.844,-84.4784,Atlanta,United States
23.46.0.0/16,1.2929,103.8547,,Singapore
23.47.0.0/16,37.751,-97.822,,United States
23.48.0.0/16,40.7876,-74.06,Secaucus,United States
23.50.0.0/16,40.1919,-75.6653,Pottstown,United States
23.52.0.0/16,33.844,-84.4784,Atlanta,United States
23.53.0.0/16,37.751,-97.822,,United States
23.54.0.0/16,22.3163,114.1842,To Kwa Wan,Hong Kong
23.55.0.0/16,25.7689,-80.1946,Miami,United States
23.56.0.0/16,37.6787,-122.127,San Lorenzo,United States
23.58.0.0/16,-33.8715,151.2006,Sydney,Australia
23.59.0.0/16,37.751,-97.822,,United States
23.60.0.0/16,25.7689,-80.1946,Miami,United States
23.61.0.0/16,1.2929,103.8547,,Singapore
23.62.0.0/16,37.7049,-122.4624,Daly City,United States
23.63.0.0/16,34.6501,133.9311,Okayama,Japan
23.65.0.0/16,39.0469,-77.4903,Ashburn,United States
23.66.0.0/16,53.3379,-6.2591,Dublin,Ireland
23.67.0.0/16,37.751,-97.822,,United States
23.72.0.0/16,28.9284,-82.4921,Beverly Hills,United States
23.74.0.0/16,42.3363,-83.1348,Detroit,United States
23.76.0.0/16,37.751,-97.822,,United States
23.77.0.0/16,40.7597,-73.981,New York,United States
23.79.0.0/16,37.3881,-121.8756,San Jose,United States
23.81.0.0/16,37.751,-97.822,,United States
23.82.0.0/16,38.617,-90.2566,St Louis,United States
23.84.0.0/16,43.8013,-91.2134,La Crosse,United States
23.87.0.0/16,40.7408,-114.0694,West Wendover,United States
23.88.0.0/16,40.7408,-114.0694,West Wendover,United States
23.89.0.0/16,50.1188,8.6843,Frankfurt am Main,Germany
23.90.0.0/16,47.1767,-1.6238,Bouguenais,France
23.91.0.0/16,28.8636,-95.9173,Bay City,United States
23.92.0.0/16,43.3309,-79.8872,Waterdown,Canada
23.93.0.0/16,41.8874,-87.6318,Chicago,United States
23.94.0.0/16,37.751,-97.822,,United States
23.95.0.0/16,37.751,-97.822,,United States
23.97.0.0/16,37.751,-97.822,,United States
23.103.0.0/16,41.6021,-93.6124,Des Moines,United States
23.105.0.0/16,34.0485,-118.2529,Los Angeles,United States
23.106.0.0/16,34.0544,-118.244,Los Angeles,United States
23.108.0.0/16,34.0544,-118.2441,Los Angeles,United States
23.110.0.0/16,26.2975,-80.1816,Pompano Beach,United States
23.111.0.0/16,35.5029,-97.4798,Oklahoma City,United States
23.112.0.0/16,29.7925,-95.3673,Houston,United States
23.113.0.0/16,30.5089,-97.6796,Round Rock,United States
23.114.0.0/16,35.0562,-80.8194,Charlotte,United States
23.115.0.0/16,43.357,-83.8598,Bridgeport,United States
23.116.0.0/16,34.0258,-83.3856,Athens,United States
23.117.0.0/16,41.8388,-87.7891,Berwyn,United States
23.118.0.0/16,37.3512,-121.8846,San Jose,United States
23.119.0.0/16,32.7847,-117.0203,La Mesa,United States
23.120.0.0/16,36.5691,-119.6191,Selma,United States
23.121.0.0/16,31.2804,-81.5305,Brunswick,United States
23.122.0.0/16,29.4873,-98.4532,San Antonio,United States
23.123.0.0/16,37.3512,-121.8846,San Jose,United States
23.124.0.0/16,39.923,-82.8664,Columbus,United States
23.125.0.0/16,38.2281,-84.8697,Frankfort,United States
23.126.0.0/16,34.9578,-85.3012,Rossville,United States
23.127.0.0/16,37.751,-97.822,,United States
23.129.0.0/16,42.587,-83.2334,Bloomfield Hills,United States
23.130.0.0/16,37.751,-97.822,,United States
23.131.0.0/16,46.0712,-73.8924,Chertsey,Canada
23.133.0.0/16,30.1999,-85.8122,Panama City Beach,United States
23.134.0.0/16,37.751,-97.822,,United States
23.136.0.0/16,37.751,-97.822,,United States
23.137.0.0/16,26.4223,-99.0003,Roma,United States
23.138.0.0/16,37.751,-97.822,,United States
23.139.0.0/16,37.751,-97.822,,United States
23.141.0.0/16,37.751,-97.822,,United States
23.142.0.0/16,39.7627,-89.6225,Springfield,United States
23.144.0.0/16,40.8496,-99.2597,Amherst,United States
23.146.0.0/16,29.6175,-82.821,Trenton,United States
23.147.0.0/16,47.6034,-122.3414,,United States
23.149.0.0/16,45.5422,-73.5445,Montreal,Canada
23.152.0.0/16,43.3195,-81.7605,Grand Bend,Canada
23.154.0.0/16,47.4949,-117.5789,Cheney,United States
23.155.0.0/16,35.669,-118.457,Lake Isabella,United States
23.157.0.0/16,37.5172,-121.9191,Fremont,United States
23.159.0.0/16,37.751,-97.822,,United States
23.161.0.0/16,42.55,-81.9624,Thamesville,Canada
23.163.0.0/16,52.2947,-113.8078,Red Deer,Canada
23.164.0.0/16,44.5304,-118.0293,Hereford,United States
23.167.0.0/16,43.6319,-79.3716,,Canada
23.168.0.0/16,43.5345,-115.9711,Boise,United States
23.170.0.0/16,35.6243,-106.7219,Jemez Pueblo,United States
23.172.0.0/16,37.751,-97.822,,United States
23.174.0.0/16,18.3861,-66.0434,San Juan,Puerto Rico
23.176.0.0/16,18.0786,-66.3542,Coamo,Puerto Rico
23.179.0.0/16,37.751,-97.822,,United States
23.182.0.0/16,33.8019,-84.3861,Atlanta,United States
23.184.0.0/16,35.6893,139.6899,Tokyo,Japan
23.189.0.0/16,37.751,-97.822,,United States
23.192.0.0/16,41.8874,-87.6318,Chicago,United States
23.193.0.0/16,37.751,-97.822,,United States
23.194.0.0/16,35.6893,139.6899,Tokyo,Japan
23.196.0.0/16,2.9304,101.6627,Cyberjaya,Malaysia
23.197.0.0/16,42.5562,-71.2782,Billerica,United States
23.198.0.0/16,13.9148,100.5002,Pak Kret,Thailand
23.199.0.0/16,37.751,-97.822,,United States
23.200.0.0/16,42.4734,-83.2212,Southfield,United States
23.201.0.0/16,34.8164,135.5693,Ibaraki,Japan
23.203.0.0/16,-33.8715,151.2006,Sydney,Australia
23.204.0.0/16,51.4991,-0.5545,Slough,United Kingdom
23.205.0.0/16,32.3159,-90.601,Edwards,United States
23.206.0.0/16,35.6893,139.6899,Tokyo,Japan
23.207.0.0/16,40.7425,-73.9877,New York,United States
23.209.0.0/16,37.751,-97.822,,United States
23.210.0.0/16,37.751,-97.822,,United States
23.212.0.0/16,32.3574,-88.656,Meridian,United States
23.213.0.0/16,29.9359,-95.4014,Houston,United States
23.214.0.0/16,40.7876,-74.06,Secaucus,United States
23.215.0.0/16,42.0648,-87.9356,Mount Prospect,United States
23.216.0.0/16,47.6034,-122.3414,Seattle,United States
23.217.0.0/16,41.8874,-87.6318,Chicago,United States
23.218.0.0/16,37.751,-97.822,,United States
23.219.0.0/16,51.5095,-0.0955,London,United Kingdom
23.220.0.0/16,37.353,-121.9543,Santa Clara,United States
23.221.0.0/16,37.751,-97.822,,United States
23.223.0.0/16,34.0544,-118.2441,Los Angeles,United States
23.224.0.0/16,37.4338,-84.0251,McKee,United States
23.226.0.0/16,37.3034,-83.9756,Annville,United States
23.227.0.0/16,36.2682,-119.8173,Lemoore,United States
23.228.0.0/16,36.8504,-76.2886,Norfolk,United States
23.229.0.0/16,42.8867,-78.8927,Buffalo,United States
23.230.0.0/16,35.6897,139.6895,,Japan
23.232.0.0/16,43.4325,-80.4995,Kitchener,Canada
23.233.0.0/16,43.8839,-78.8774,Oshawa,Canada
23.234.0.0/16,41.6525,-75.4736,Forest City,United States
23.235.0.0/16,41.8368,-75.5307,Thompson,United States
23.236.0.0/16,37.3326,-121.89,San Jose,United States
23.237.0.0/16,34.0485,-118.2529,Los Angeles,United States
23.239.0.0/16,33.9249,-117.4592,Riverside,United States
23.240.0.0/16,34.029,-118.4005,Los Angeles,United States
23.241.0.0/16,34.197,-118.8199,Thousand Oaks,United States
23.242.0.0/16,34.1211,-117.4362,Fontana,United States
23.243.0.0/16,41.4519,-81.921,Westlake,United States
23.244.0.0/16,40.6609,-78.2393,Tyrone,United States
23.245.0.0/16,40.0536,-83.0115,Columbus,United States
23.246.0.0/16,40.7365,-74.0055,New York,United States
23.247.0.0/16,43.6547,-79.3623,Toronto,Canada
23.248.0.0/16,43.4641,-80.452,Kitchener,Canada
23.249.0.0/16,44.7634,-67.246,Whiting,United States
23.250.0.0/16,42.8867,-78.8927,Buffalo,United States
23.251.0.0/16,32.553,-92.0422,Monroe,United States
23.252.0.0/16,38.3958,-121.2264,Wilton,United States
23.253.0.0/16,41.85,-87.7165,Chicago,United States
23.254.0.0/16,42.8867,-78.8927,Buffalo,United States
24.0.0.0/16,41.5495,-88.1235,Joliet,United States
24.1.0.0/16,38.6975,-121.2714,Citrus Heights,United States
24.2.0.0/16,40.4688,-80.0872,McKees Rocks,United States
24.3.0.0/16,38.2828,-122.4677,Sonoma,United States
24.4.0.0/16,37.9648,-121.77,Antioch,United States
24.5.0.0/16,37.5313,-122.2501,Redwood City,United States
24.6.0.0/16,34.9504,-120.4964,Santa Maria,United States
24.7.0.0/16,39.9073,-105.0156,Denver,United States
24.8.0.0/16,38.2366,-104.6593,Pueblo,United States
24.9.0.0/16,39.1667,-121.5048,Marysville,United States
24.10.0.0/16,41.0854,-111.9682,Layton,United States
24.11.0.0/16,32.7944,-79.9484,Charleston,United States
24.12.0.0/16,40.1016,-88.2822,Champaign,United States
24.13.0.0/16,41.7454,-86.1387,Granger,United States
24.14.0.0/16,42.3294,-89.0325,Loves Park,United States
24.15.0.0/16,47.6722,-122.1257,Redmond,United States
24.16.0.0/16,47.6733,-122.3426,Seattle,United States
24.17.0.0/16,47.2565,-122.4421,Tacoma,United States
24.18.0.0/16,47.9856,-122.2002,Everett,United States
24.19.0.0/16,47.6011,-122.6305,Bremerton,United States
24.20.0.0/16,45.5375,-122.5989,Portland,United States
24.21.0.0/16,45.4111,-122.6871,Lake Oswego,United States
24.22.0.0/16,38.4819,-121.4024,Sacramento,United States
24.23.0.0/16,34.106,-118.3607,Los Angeles,United States
24.24.0.0/16,29.4698,-98.5357,San Antonio,United States
24.25.0.0/16,37.751,-97.822,,United States
24.26.0.0/16,30.424,-97.7932,Austin,United States
24.27.0.0/16,42.938,-74.1853,Amsterdam,United States
24.28.0.0/16,33.8019,-84.3861,Atlanta,United States
24.29.0.0/16,33.7873,-117.9231,Garden Grove,United States
24.30.0.0/16,40.7428,-73.9712,New York,United States
24.31.0.0/16,32.886,-96.4095,Rockwall,United States
24.32.0.0/16,40.7977,-124.1565,Eureka,United States
24.34.0.0/16,30.2337,-85.6421,Lynn Haven,United States
24.35.0.0/16,34.8504,-92.4089,Maumelle,United States
24.36.0.0/16,45.861,-72.0758,Kingsey Falls,Canada
24.37.0.0/16,45.5671,-73.8994,Saint-Eustache,Canada
24.38.0.0/16,40.828,-73.8685,The Bronx,United States
24.39.0.0/16,43.6598,-70.2547,Portland,United States
24.40.0.0/16,35.5935,-88.6396,Beech Bluff,United States
24.41.0.0/16,34.0539,-89.0559,Old Houlka,United States
24.42.0.0/16,34.4279,-118.4513,Canyon Country,United States
24.43.0.0/16,33.6404,-117.9226,Costa Mesa,United States
24.44.0.0/16,34.0409,-84.0237,Suwanee,United States
24.45.0.0/16,40.8731,-74.7426,Budd Lake,United States
24.46.0.0/16,41.0139,-74.3353,Bloomingdale,United States
24.47.0.0/16,40.7665,-73.1216,Bohemia,United States
24.48.0.0/16,32.4367,-91.0617,Tallulah,United States
24.49.0.0/16,37.3155,-79.5335,Bedford,United States
24.50.0.0/16,45.0191,-88.3675,Suring,United States
24.51.0.0/16,41.7733,-78.1508,Roulette,United States
24.52.0.0/16,41.7061,-83.7044,Sylvania,United States
24.53.0.0/16,37.353,-79.1557,Lynchburg,United States
24.54.0.0/16,42.9515,-81.3386,London,Canada
24.55.0.0/16,18.0786,-66.3542,Coamo,Puerto Rico
24.56.0.0/16,40.0414,-84.2023,Troy,United States
24.57.0.0/16,43.4394,-76.4613,Oswego,United States
24.58.0.0/16,42.1722,-70.95,South Weymouth,United States
24.59.0.0/16,42.2518,-71.0805,Milton,United States
24.60.0.0/16,42.7826,-71.1029,Haverhill,United States
24.61.0.0/16,42.4567,-71.3747,Concord,United States
24.62.0.0/16,41.5481,-73.0012,Waterbury,United States
24.63.0.0/16,50.9804,-114.1015,Calgary,Canada
24.64.0.0/16,51.0483,-113.9633,Calgary,Canada
24.65.0.0/16,51.1613,-113.9518,Calgary,Canada
24.66.0.0/16,49.5005,-117.2864,Nelson,Canada
24.67.0.0/16,49.3163,-124.3194,Parksville,Canada
24.68.0.0/16,48.6486,-123.4044,Sidney,Canada
24.69.0.0/16,49.8625,-119.5833,West Kelowna,Canada
24.70.0.0/16,51.5521,-107.9778,Rosetown,Canada
24.71.0.0/16,55.0865,-105.3131,Air Ronge,Canada
24.72.0.0/16,50.4833,-104.6091,Regina,Canada
24.73.0.0/16,28.0451,-82.688,Oldsmar,United States
24.74.0.0/16,40.8974,-77.7722,Bellefonte,United States
24.75.0.0/16,49.8538,-97.2903,Winnipeg,Canada
24.76.0.0/16,49.9716,-97.1515,Winnipeg,Canada
24.77.0.0/16,49.8538,-97.2903,Winnipeg,Canada
24.78.0.0/16,49.2825,-123.1291,Vancouver,Canada
24.79.0.0/16,49.2155,-123.1427,Vancouver,Canada
24.80.0.0/16,49.2824,-123.0399,Vancouver,Canada
24.84.0.0/16,49.2773,-123.0679,Vancouver,Canada
24.85.0.0/16,49.2958,-123.141,Vancouver,Canada
24.86.0.0/16,49.3527,-123.0686,North Vancouver,Canada
24.87.0.0/16,33.0273,-80.1768,Summerville,United States
24.88.0.0/16,50.4245,-104.608,Regina,Canada
24.89.0.0/16,50.7664,-103.7783,Fort Qu'Appelle,Canada
24.90.0.0/16,42.2783,-71.1593,West Roxbury,United States
24.91.0.0/16,40.0457,-83.0721,Columbus,United States
24.92.0.0/16,41.6868,-81.3399,Mentor,United States
24.93.0.0/16,42.4796,-83.1715,Huntington Woods,United States
24.94.0.0/16,30.2337,-85.6421,Lynn Haven,United States
24.95.0.0/16,32.797,-80.003,Charleston,United States
24.96.0.0/16,32.4783,-84.8985,Columbus,United States
24.97.0.0/16,42.7024,-74.9202,Cooperstown,United States
24.98.0.0/16,33.7664,-84.264,Avondale Estates,United States
24.99.0.0/16,37.9211,-89.8189,Chester,United States
24.100.0.0/16,38.6717,-87.5128,Vincennes,United States
24.101.0.0/16,41.0332,-82.2154,Sullivan,United States
24.102.0.0/16,40.9732,-75.5835,Albrightsville,United States
24.103.0.0/16,40.7961,-73.9513,Manhattan,United States
24.104.0.0/16,40.1705,-76.4166,Manheim,United States
24.105.0.0/16,45.5725,-73.6195,Montreal,Canada
24.106.0.0/16,40.7579,-96.6962,Lincoln,United States
24.107.0.0/16,42.3091,-71.8001,Worcester,United States
24.109.0.0/16,49.3351,-123.1981,Vancouver,Canada
24.111.0.0/16,34.0026,-96.3832,Durant,United States
24.112.0.0/16,30.2282,-93.1919,Lake Charles,United States
24.113.0.0/16,47.5329,-122.5801,Port Orchard,United States
24.114.0.0/16,45.5496,-73.6985,Laval,Canada
24.115.0.0/16,40.4323,-75.1091,Pipersville,United States
24.116.0.0/16,43.4736,-112.0201,Idaho Falls,United States
24.117.0.0/16,44.007,-117.2603,Vale,United States
24.118.0.0/16,44.0755,-116.9247,Payette,United States
24.119.0.0/16,44.0416,-116.9783,Ontario,United States
24.120.0.0/16,36.175,-115.1372,Las Vegas,United States
24.121.0.0/16,36.1549,-116.0177,Pahrump,United States
24.122.0.0/16,38.3078,-85.7359,Jeffersonville,United States
24.123.0.0/16,39.7954,-86.2658,Indianapolis,United States
24.124.0.0/16,34.0797,-83.9328,Buford,United States
24.125.0.0/16,33.9916,-83.8901,Dacula,United States
24.126.0.0/16,39.6249,-75.8351,Elkton,United States
24.127.0.0/16,38.8503,-104.8567,Colorado Springs,United States
24.128.0.0/16,43.8141,-83.2693,Pigeon,United States
24.129.0.0/16,28.0109,-82.4948,Tampa,United States
24.130.0.0/16,40.3685,-80.0504,Pittsburgh,United States
24.131.0.0/16,52.5665,5.6422,Swifterbant,Netherlands
24.132.0.0/16,52.3534,4.9087,Amsterdam,Netherlands
24.133.0.0/16,37.0695,35.0907,Adana,Turkey
24.134.0.0/16,48.1084,11.6102,Munich,Germany
24.135.0.0/16,44.8166,20.4721,Belgrade,Serbia
24.136.0.0/16,40.7114,-74.0005,New York,United States
24.137.0.0/16,44.5316,-78.549,Bobcaygeon,Canada
24.138.0.0/16,44.6747,-63.5094,Dartmouth,Canada
24.139.0.0/16,46.5133,-81.0225,Greater Sudbury,Canada
24.140.0.0/16,40.8142,-81.9387,Wooster,United States
24.141.0.0/16,52.7858,-111.8496,Killam,Canada
24.142.0.0/16,54.262,-110.7405,Bonnyville,Canada
24.143.0.0/16,47.6859,-122.2994,Seattle,United States
24.144.0.0/16,40.8063,-79.9754,Renfrew,United States
24.145.0.0/16,40.3053,-78.954,Johnstown,United States
24.146.0.0/16,40.916,-73.0497,Port Jefferson Station,United States
24.147.0.0/16,42.2478,-73.754,Hudson,United States
24.148.0.0/16,40.7538,-73.9836,New York,United States
24.149.0.0/16,37.0818,-79.7573,Wirtz,United States
24.150.0.0/16,41.5782,-73.415,New Milford,United States
24.151.0.0/16,42.1763,-72.5771,Chicopee,United States
24.152.0.0/16,41.1849,-75.386,Tobyhanna,United States
24.153.0.0/16,39.9444,-75.5875,West Chester,United States
24.154.0.0/16,40.9476,-79.7377,Chicora,United States
24.155.0.0/16,33.1494,-96.828,Frisco,United States
24.156.0.0/16,35.1328,-113.7033,Kingman,United States
24.157.0.0/16,43.0334,-89.4512,Fitchburg,United States
24.158.0.0/16,42.7831,-88.9538,Milton,United States
24.159.0.0/16,35.1492,-86.5646,Fayetteville,United States
24.160.0.0/16,30.5154,-97.6689,Round Rock,United States
24.161.0.0/16,26.2148,-98.231,McAllen,United States
24.162.0.0/16,35.9424,-78.6358,Raleigh,United States
24.163.0.0/16,32.7173,-117.157,San Diego,United States
24.164.0.0/16,39.7142,-84.1309,Dayton,United States
24.165.0.0/16,38.3085,-85.816,New Albany,United States
24.166.0.0/16,26.165,-97.9892,Weslaco,United States
24.167.0.0/16,42.6701,-73.7754,Albany,United States
24.168.0.0/16,42.781,-73.9115,Schenectady,United States
24.169.0.0/16,42.7504,-74.191,Delanson,United States
24.170.0.0/16,38.4481,-91.0193,Union,United States
24.171.0.0/16,35.2369,-80.8957,Charlotte,United States
24.172.0.0/16,34.1911,-80.9758,Blythewood,United States
24.173.0.0/16,31.7775,-106.4903,El Paso,United States
24.175.0.0/16,42.2623,-85.6148,Kalamazoo,United States
24.176.0.0/16,43.1152,-85.5136,Rockford,United States
24.177.0.0/16,34.7518,-82.2556,Simpsonville,United States
24.178.0.0/16,38.7142,-90.2759,St Louis,United States
24.179.0.0/16,45.3511,-93.7398,Big Lake,United States
24.180.0.0/16,35.2612,-120.655,San Luis Obispo,United States
24.181.0.0/16,33.5637,-84.2112,Stockbridge,United States
24.182.0.0/16,33.8041,-118.1874,Long Beach,United States
24.183.0.0/16,35.6173,-87.0317,Columbia,United States
24.184.0.0/16,40.6737,-73.5336,Bellmore,United States
24.185.0.0/16,40.8881,-73.8414,The Bronx,United States
24.186.0.0/16,40.8861,-73.2438,Kings Park,United States
24.187.0.0/16,40.2066,-74.0727,Neptune City,United States
24.188.0.0/16,40.7764,-72.9476,Bellport,United States
24.189.0.0/16,41.328,-74.1894,Monroe,United States
24.190.0.0/16,41.0582,-73.6577,Greenwich,United States
24.191.0.0/16,41.0353,-73.8514,Irvington,United States
24.192.0.0/16,40.757,-73.7283,Flushing,United States
24.193.0.0/16,42.6359,-73.7219,Rensselaer,United States
24.194.0.0/16,46.8154,-92.1952,Duluth,United States
24.196.0.0/16,44.165,-94.0131,Mankato,United States
24.197.0.0/16,34.2759,-86.2045,Albertville,United States
24.198.0.0/16,34.0896,-117.8895,Covina,United States
24.199.0.0/16,34.1928,-118.4886,Van Nuys,United States
24.200.0.0/16,45.5671,-73.8994,Saint-Eustache,Canada
24.201.0.0/16,45.7884,-73.7674,La Plaine,Canada
24.202.0.0/16,45.6085,-73.5493,Montreal,Canada
24.203.0.0/16,48.4294,-71.1774,Jonquiere,Canada
24.204.0.0/16,42.9698,-85.9212,Allendale,United States
24.205.0.0/16,33.9388,-117.416,Riverside,United States
24.206.0.0/16,36.1168,-80.0837,Kernersville,United States
24.207.0.0/16,49.1161,-122.907,Delta,Canada
24.208.0.0/16,42.9516,-88.2963,Waukesha,United States
24.209.0.0/16,41.141,-81.4768,Cuyahoga Falls,United States
24.210.0.0/16,33.4987,-80.8466,Orangeburg,United States
24.211.0.0/16,47.355,-79.346,Lorrainville,Canada
24.212.0.0/16,48.2838,-78.8287,Rouyn-Noranda,Canada
24.213.0.0/16,47.1173,-88.5535,Houghton,United States
24.214.0.0/16,40.1873,-82.9899,Lewis Center,United States
24.215.0.0/16,44.3794,-64.5197,Bridgewater,Canada
24.216.0.0/16,36.7328,-76.5898,Suffolk,United States
24.217.0.0/16,43.0286,-71.1922,Raymond,United States
24.218.0.0/16,42.055,-87.6951,Evanston,United States
24.219.0.0/16,43.5547,-96.7435,Sioux Falls,United States
24.220.0.0/16,37.751,-97.822,,United States
24.221.0.0/16,37.751,-97.822,,United States
24.222.0.0/16,44.799,-65.2961,Bridgetown,Canada
24.223.0.0/16,40.7128,-99.0783,Kearney,United States
24.224.0.0/16,30.1775,-93.8409,Orange,United States
24.225.0.0/16,39.7562,-98.4462,Esbon,United States
24.226.0.0/16,28.4566,-80.7978,Port Saint John,United States
24.227.0.0/16,28.4986,-81.5353,Windermere,United States
24.228.0.0/16,40.6186,-73.9272,Brooklyn,United States
24.229.0.0/16,40.3356,-75.979,Reading,United States
24.230.0.0/16,47.8376,-69.4067,Saint-Modeste,Canada
24.231.0.0/16,45.5312,-73.5863,Montreal,Canada
24.232.0.0/16,-32.21,-63.1788,Villa María,Argentina
24.233.0.0/16,43.2874,-71.3352,Pittsfield,United States
24.234.0.0/16,35.9726,-114.8356,Boulder City,United States
24.235.0.0/16,42.767,-80.9779,Aylmer,Canada
24.236.0.0/16,42.1219,-85.5061,Vicksburg,United States
24.237.0.0/16,25.7806,-80.1826,Miami,United States
24.238.0.0/16,41.5775,-75.2552,Honesdale,United States
24.239.0.0/16,41.6323,-80.1472,Meadville,United States
24.240.0.0/16,44.1968,-72.4976,Barre,United States
24.241.0.0/16,38.6976,-90.3604,Overland,United States
24.242.0.0/16,29.9792,-93.9546,Port Neches,United States
24.243.0.0/16,44.3482,-78.7329,Lindsay,Canada
24.244.0.0/16,46.4973,-81.0128,Little Britain,Canada
24.245.0.0/16,39.8633,-89.5095,Riverton,United States
24.246.0.0/16,45.4336,-75.6825,Ottawa,Canada
24.247.0.0/16,45.3576,-84.9088,Petoskey,United States
24.248.0.0/16,32.6181,-83.789,Byron,United States
24.249.0.0/16,30.4457,-91.1801,Baton Rouge,United States
24.250.0.0/16,29.5594,-82.5153,Archer,United States
24.251.0.0/16,33.5103,-112.409,Litchfield Park,United States
24.252.0.0/16,36.175,-115.1372,Las Vegas,United States
24.253.0.0/16,35.4603,-97.3387,Oklahoma City,United States
24.254.0.0/16,33.4306,-111.9256,Tempe,United States
24.255.0.0/16,33.4683,-112.0549,Phoenix,United States
25.10.0.0/16,51.4964,-0.1224,,United Kingdom
25.19.0.0/16,51.4964,-0.1224,,United Kingdom
25.29.0.0/16,51.4964,-0.1224,,United Kingdom
25.68.0.0/16,51.4964,-0.1224,,United Kingdom
25.77.0.0/16,53.4179,-113.5785,Edmonton,Canada
25.84.0.0/16,37.751,-97.822,,United States
25.200.0.0/16,33.4294,-112.3896,Goodyear,United States
26.0.0.0/8,37.751,-97.822,,United States
26.122.0.0/16,35.6897,139.6895,,Japan
27.0.0.0/16,30.0,70.0,,Pakistan
27.1.0.0/16,21.0313,105.8516,Hanoi,Vietnam
27.2.0.0/16,12.2539,109.1832,Nha Trang,Vietnam
27.3.0.0/16,12.8996,80.2209,Chennai,India
27.4.0.0/16,12.8996,80.2209,Chennai,India
27.5.0.0/16,12.8996,80.2209,Chennai,India
27.6.0.0/16,17.411,78.4487,Hyderabad,India
27.7.0.0/16,12.9634,77.5855,Bengaluru,India
27.17.0.0/16,-42.8836,147.4062,Hobart,Australia
27.19.0.0/16,-33.8715,151.2006,Sydney,Australia
27.32.0.0/16,-42.8772,147.331,Hobart,Australia
27.33.0.0/16,-37.8263,145.1503,Melbourne,Australia
27.34.0.0/16,35.1001,129.0433,Busan,South Korea
27.35.0.0/16,22.5559,114.0577,Shenzhen,China
27.37.0.0/16,-33.8979,151.1897,Sydney,Australia
27.45.0.0/16,25.0504,121.5324,Taipei,Taiwan
27.50.0.0/16,24.9889,121.3176,Taoyuan District,Taiwan
27.51.0.0/16,25.0504,121.5324,Taipei,Taiwan
27.52.0.0/16,24.9466,121.586,New Taipei,Taiwan
27.53.0.0/16,21.9974,79.0011,,India
27.54.0.0/16,24.809,93.9407,Imphal,India
27.56.0.0/16,23.2654,77.396,,India
27.57.0.0/16,26.9525,75.7105,Jaipur,India
27.58.0.0/16,12.9634,77.5855,Bengaluru,India
27.59.0.0/16,9.9185,76.2558,Kochi,India
27.60.0.0/16,21.3295,83.6186,Bargarh,India
27.61.0.0/16,23.3426,85.3099,Ranchi,India
27.62.0.0/16,23.2654,77.396,,India
27.63.0.0/16,10.7689,75.9287,Ponnani,India
27.64.0.0/16,10.8326,106.6581,Ho Chi Minh City,Vietnam
27.65.0.0/16,19.29,105.5609,Xom Mot,Vietnam
27.66.0.0/16,21.311,105.5938,Vinh Yen,Vietnam
27.67.0.0/16,10.8326,106.6581,Ho Chi Minh City,Vietnam
27.68.0.0/16,12.2539,109.1832,Nha Trang,Vietnam
27.69.0.0/16,11.6172,108.9828,Thon Thanh Y,Vietnam
27.71.0.0/16,21.0313,105.8516,Hanoi,Vietnam
27.72.0.0/16,21.0313,105.8516,Hanoi,Vietnam
27.73.0.0/16,10.8326,106.6581,Ho Chi Minh City,Vietnam
27.74.0.0/16,21.0313,105.8516,Hanoi,Vietnam
27.75.0.0/16,10.8326,106.6581,Ho Chi Minh City,Vietnam
27.76.0.0/16,10.8494,106.7511,Thu Duc,Vietnam
27.77.0.0/16,12.8593,108.4051,Tan Tien,Vietnam
27.78.0.0/16,21.0313,105.8516,Hanoi,Vietnam
27.79.0.0/16,33.5858,130.432,Fukuoka,Japan
27.81.0.0/16,35.8043,139.9836,Rokkodai,Japan
27.82.0.0/16,35.7731,139.6234,Hibarigaoka,Japan
27.83.0.0/16,34.7186,135.4396,Amagasaki,Japan
27.84.0.0/16,35.8104,139.6696,Honcho,Japan
27.85.0.0/16,34.6947,135.5,Umeda,Japan
27.87.0.0/16,35.5754,139.7093,Ikegami,Japan
27.89.0.0/16,35.3638,139.4763,Fujisawa,Japan
27.91.0.0/16,35.5311,139.7314,Kawasaki,Japan
27.92.0.0/16,34.3993,132.4702,Hiroshima,Japan
27.93.0.0/16,35.5381,139.4479,Machida,Japan
27.94.0.0/16,35.4343,139.6466,Yokohama,Japan
27.95.0.0/16,34.4031,132.4601,Motomachi,Japan
27.96.0.0/16,-37.8159,144.9669,Melbourne,Australia
27.97.0.0/16,11.2189,75.7268,Kozhikode,India
27.98.0.0/16,-27.5601,151.9513,Toowoomba,Australia
27.99.0.0/16,33.5109,126.5264,Jeju City,South Korea
27.100.0.0/16,24.9466,121.586,New Taipei,Taiwan
27.105.0.0/16,18.6161,73.7286,Pune,India
27.106.0.0/16,14.7069,120.93,Obando,Philippines
27.109.0.0/16,35.6893,139.6899,Tokyo,Japan
27.110.0.0/16,14.8257,120.2813,Olongapo City,Philippines
27.111.0.0/16,35.8283,128.5152,Dalseo-gu,South Korea
27.112.0.0/16,35.1762,136.8826,Meieki,Japan
27.113.0.0/16,35.4578,139.5968,Yokohama,Japan
27.114.0.0/16,35.8104,139.6696,Niizo,Japan
27.116.0.0/16,36.8039,127.1556,Cheonan,South Korea
27.117.0.0/16,37.2872,127.0116,Suwon,South Korea
27.119.0.0/16,35.9692,139.6109,Ageo,Japan
27.120.0.0/16,35.4643,139.6262,Minatomirai,Japan
27.121.0.0/16,36.5304,139.8629,Midori,Japan
27.122.0.0/16,47.9173,106.9177,Ulan Bator,Mongolia
27.123.0.0/16,1.3673,103.8014,,Singapore
27.124.0.0/16,35.8731,128.5435,Seo-gu,South Korea
27.125.0.0/16,35.96,139.4028,Tsurugashima,Japan
27.126.0.0/16,35.1743,136.8931,Meieki,Japan
27.127.0.0/16,-27.5601,151.9513,Toowoomba,Australia
27.129.0.0/16,36.5968,136.5998,Kanazawa,Japan
27.131.0.0/16,35.6404,139.5364,Sazumachi,Japan
27.132.0.0/16,33.5564,133.5437,Kochi,Japan
27.133.0.0/16,35.6143,140.1062,Shinchiba,Japan
27.134.0.0/16,35.8691,139.6582,Takasago,Japan
27.136.0.0/16,35.8027,139.7161,Kawaguchi,Japan
27.137.0.0/16,35.8292,139.6789,Nishikicho,Japan
27.138.0.0/16,35.7027,139.6749,Nakano,Japan
27.139.0.0/16,43.0459,141.3543,Sapporo,Japan
27.140.0.0/16,35.8532,139.6361,Shikatebukuro,Japan
27.141.0.0/16,35.2935,139.6785,Yokosuka,Japan
27.142.0.0/16,35.4862,139.4569,Shimotsuruma,Japan
27.143.0.0/16,13.8054,100.6751,Bangkok,Thailand
27.145.0.0/16,24.9466,121.586,New Taipei,Taiwan
27.147.0.0/16,23.7272,90.4093,Dhaka,Bangladesh
27.148.0.0/16,34.7732,113.722,,China
27.149.0.0/16,37.4444,126.865,Gwangmyeong-si,South Korea
27.155.0.0/16,37.5813,126.9377,Seodaemun-gu,South Korea
27.160.0.0/16,37.6294,127.0067,Gangbuk-gu,South Korea
27.162.0.0/16,37.3253,126.8178,Ansan-si,South Korea
27.163.0.0/16,37.3253,126.8178,Ansan-si,South Korea
27.164.0.0/16,37.4585,126.7015,Incheon,South Korea
27.166.0.0/16,35.8723,128.5924,Daegu,South Korea
27.167.0.0/16,37.4975,126.8501,Guro-gu,South Korea
27.172.0.0/16,37.7451,128.8774,Gangneung,South Korea
27.173.0.0/16,36.8197,127.6565,North Chungcheong,South Korea
27.175.0.0/16,37.5355,126.9766,Yongsan-gu,South Korea
27.176.0.0/16,37.5662,126.8309,Gangseo-gu,South Korea
27.177.0.0/16,38.8511,115.4879,Baoding,China
27.179.0.0/16,36.4469,116.0042,Liaocheng,China
27.187.0.0/16,36.7906,118.0633,Zibo,China
27.196.0.0/16,35.4043,116.583,Jining,China
27.204.0.0/16,35.5997,140.137,Ichibacho,Japan
27.218.0.0/16,35.3516,139.4833,Fujigaoka,Japan
27.228.0.0/16,22.6148,120.3139,Kaohsiung City,Taiwan
27.231.0.0/16,24.9466,121.586,New Taipei,Taiwan
27.240.0.0/16,25.0504,121.5324,Taipei,Taiwan
27.242.0.0/16,24.9466,121.586,New Taipei,Taiwan
27.246.0.0/16,24.9466,121.586,New Taipei,Taiwan
27.247.0.0/16,-36.8867,174.769,Auckland,New Zealand
27.252.0.0/16,13.751,100.4873,Bangkok,Thailand
27.253.0.0/16,31.5826,74.3276,Lahore,Pakistan
27.254.0.0/16,31.33,75.5844,Jalandhar,India
27.255.0.0/16,30.3388,76.3906,Patiala,India
28.20.0.0/16,41.9215,-87.6446,Chicago,United States
28.35.0.0/16,37.751,-97.822,,United States
28.41.0.0/16,37.751,-97.822,,United States
28.141.0.0/16,37.751,-97.822,,United States
28.245.0.0/16,37.751,-97.822,,United States
30.0.0.0/16,40.6186,-73.9272,Brooklyn,United States
30.0.0.0/8,52.0125,18.4991,Turek,Poland
30.129.0.0/16,51.754,19.4673,,Poland
31.0.0.0/16,50.263,19.0245,,Poland
31.1.0.0/16,51.8993,19.5982,Strykow,Poland
31.2.0.0/16,35.6944,51.4215,Tehran,Iran
31.3.0.0/16,40.4172,-3.684,,Spain
31.4.0.0/16,40.4172,-3.684,,Spain
31.5.0.0/16,44.9467,26.0135,Ploieşti,Romania
31.6.0.0/16,36.9094,30.6946,Antalya,Turkey
31.7.0.0/16,54.799,55.9053,Ufa,Russia
31.8.0.0/16,55.7483,37.6171,Moscow,Russia
31.10.0.0/16,55.6139,38.2127,Ramenskoye,Russia
31.11.0.0/16,50.0585,19.9342,Krakow,Poland
31.13.0.0/16,36.1679,-5.3471,La Línea de la Concepción,Spain
31.14.0.0/16,45.9968,24.997,,Romania
31.15.0.0/16,46.0503,14.5046,Ljubljana,Slovenia
31.16.0.0/16,53.1063,8.7755,Bremen,Germany
31.17.0.0/16,52.5196,13.4069,Berlin,Germany
31.18.0.0/16,47.8874,10.6235,Kaufbeuren,Germany
31.19.0.0/16,47.8085,10.8998,Schongau,Germany
31.20.0.0/16,52.2271,5.1775,Hilversum,Netherlands
31.21.0.0/16,52.0522,5.2891,Driebergen,Netherlands
31.22.0.0/16,47.2361,39.7189,Rostov-on-Don,Russia
31.23.0.0/16,47.2361,39.7189,Rostov-on-Don,Russia
31.24.0.0/16,51.3476,-0.7363,Camberley,United Kingdom
31.25.0.0/16,40.9202,9.5034,Olbia,Italy
31.26.0.0/16,45.4354,10.8418,Sona,Italy
31.27.0.0/16,45.4317,10.9859,Verona,Italy
31.28.0.0/16,53.5674,10.055,Hamburg,Germany
31.29.0.0/16,50.0883,14.4124,Prague,Czechia
31.30.0.0/16,39.7319,-0.8208,Villar del Arzobispo,Spain
31.31.0.0/16,48.8323,2.4075,Paris,France
31.32.0.0/16,48.7898,2.5447,Chennevieres-sur-Marne,France
31.33.0.0/16,48.4986,6.507,Gerbeviller,France
31.34.0.0/16,43.7822,-1.2219,Magescq,France
31.35.0.0/16,44.0167,1.35,Montauban,France
31.36.0.0/16,44.8486,0.4824,Bergerac,France
31.37.0.0/16,50.6974,3.178,Roubaix,France
31.38.0.0/16,48.5144,-2.768,Saint-Brieuc,France
31.39.0.0/16,48.9497,2.5624,Tremblay-en-France,France
31.40.0.0/16,41.0,20.0,,Albania
31.41.0.0/16,50.4522,30.5287,,Ukraine
31.42.0.0/16,10.0029,-84.0,,Costa Rica
31.43.0.0/16,48.6191,22.3025,Uzhhorod,Ukraine
31.44.0.0/16,50.6165,36.5758,Belgorod,Russia
31.45.0.0/16,43.5098,16.4411,Split,Croatia
31.46.0.0/16,52.2978,104.2964,Irkutsk,Russia
31.47.0.0/16,51.4102,-2.6023,Bristol,United Kingdom
31.48.0.0/16,51.4719,-0.1616,London,United Kingdom
31.49.0.0/16,53.3262,-3.8278,Llandudno,United Kingdom
31.50.0.0/16,50.1158,-5.5429,Penzance,United Kingdom
31.51.0.0/16,50.349,-4.8259,St Austell,United Kingdom
31.52.0.0/16,52.757,0.4153,Kings Lynn,United Kingdom
31.53.0.0/16,53.401,-3.123,Wirral,United Kingdom
31.54.0.0/16,51.4327,-0.1693,London,United Kingdom
31.55.0.0/16,51.1043,17.0335,Wroclaw,Poland
31.58.0.0/16,51.1043,17.0335,Wroclaw,Poland
31.60.0.0/16,53.1227,18.0038,Bydgoszcz,Poland
31.61.0.0/16,51.4964,-0.1224,,United Kingdom
31.63.0.0/16,52.0366,-2.2971,Cradley,United Kingdom
31.73.0.0/16,51.4964,-0.1224,,United Kingdom
31.76.0.0/16,50.8612,-0.1194,Brighton,United Kingdom
31.78.0.0/16,51.6539,-0.0888,Enfield,United Kingdom
31.80.0.0/16,51.4964,-0.1224,,United Kingdom
31.82.0.0/16,51.5128,-0.0638,London,United Kingdom
31.94.0.0/16,51.5638,-0.0765,London,United Kingdom
31.96.0.0/16,53.3794,-2.9112,Liverpool,United Kingdom
31.0.0.0/8,54.6,-1.55,Newton Aycliffe,United Kingdom
31.111.0.0/16,51.4964,-0.1224,,United Kingdom
31.117.0.0/16,51.728,-4.6614,Narberth,United Kingdom
31.120.0.0/16,53.5915,-2.3931,Bolton,United Kingdom
31.121.0.0/16,50.7018,-3.5346,Exeter,United Kingdom
31.124.0.0/16,53.2558,-1.4292,Chesterfield,United Kingdom
31.125.0.0/16,52.3907,-1.2911,Rugby,United Kingdom
31.126.0.0/16,51.0522,31.8862,Nizhyn,Ukraine
31.128.0.0/16,48.4519,34.7054,Kamianske,Ukraine
31.129.0.0/16,49.1967,18.8203,Žilina,Slovakia
31.130.0.0/16,52.5882,39.6023,Lipetsk,Russia
31.131.0.0/16,42.8967,71.3575,Taraz,Kazakhstan
31.132.0.0/16,59.8983,30.2618,St Petersburg,Russia
31.133.0.0/16,50.4139,25.7373,Dubno,Ukraine
31.134.0.0/16,53.7438,87.0979,Novokuznetsk,Russia
31.135.0.0/16,51.4931,5.6714,Helmond,Netherlands
31.136.0.0/16,53.0076,6.5926,Assen,Netherlands
31.137.0.0/16,38.425,27.1417,Izmir,Turkey
31.138.0.0/16,41.0145,28.9533,Istanbul,Turkey
31.140.0.0/16,36.8752,30.7072,Antalya,Turkey
31.141.0.0/16,38.3975,27.0185,Izmir,Turkey
31.142.0.0/16,39.9107,32.8554,Ankara,Turkey
31.143.0.0/16,40.2024,29.0398,Bursa,Turkey
31.144.0.0/16,41.0145,28.9533,Istanbul,Turkey
31.145.0.0/16,37.0646,37.3756,Gaziantep,Turkey
31.146.0.0/16,49.839,24.0191,Lviv,Ukraine
31.147.0.0/16,54.7474,83.083,Berdsk,Russia
31.148.0.0/16,52.0672,5.1318,Utrecht,Netherlands
31.149.0.0/16,52.0708,4.3079,The Hague,Netherlands
31.150.0.0/16,52.2096,5.941,Apeldoorn,Netherlands
31.151.0.0/16,40.5265,22.1998,Veroia,Greece
31.152.0.0/16,39.644,22.4217,Larissa,Greece
31.153.0.0/16,32.0803,34.7805,Tel Aviv,Israel
31.154.0.0/16,41.0329,28.9529,Fatih,Turkey
31.155.0.0/16,44.6534,10.9231,Modena,Italy
31.156.0.0/16,43.0694,12.5101,Bastia umbra,Italy
31.157.0.0/16,45.5326,9.0413,Rho,Italy
31.158.0.0/16,45.3157,8.8518,Vigevano,Italy
31.159.0.0/16,51.5964,4.7225,Prinsenbeek,Netherlands
31.160.0.0/16,52.1308,5.7448,Harskamp,Netherlands
31.161.0.0/16,52.0672,5.1318,Utrecht,Netherlands
31.162.0.0/16,55.1553,61.4313,Chelyabinsk,Russia
31.163.0.0/16,47.4617,8.5868,Kloten,Switzerland
31.164.0.0/16,47.5403,7.6084,Basel,Switzerland
31.165.0.0/16,47.3682,8.5671,Zurich,Switzerland
31.166.0.0/16,32.6113,35.2885,Afula,Israel
31.167.0.0/16,31.9522,34.8943,Lod,Israel
31.168.0.0/16,31.8964,35.0162,Modi‘in Makkabbim Re‘ut,Israel
31.169.0.0/16,47.8545,35.1253,Zaporizhzhya,Ukraine
31.170.0.0/16,41.3253,19.8184,Tirana,Albania
31.171.0.0/16,51.2993,9.491,,Germany
31.172.0.0/16,55.8919,37.4652,Khimki,Russia
31.173.0.0/16,50.3314,18.8959,Bytom,Poland
31.174.0.0/16,43.9889,18.1831,Visoko,Bosnia and Herzegovina
31.175.0.0/16,51.9605,4.5101,Rotterdam,Netherlands
31.176.0.0/16,41.0214,28.9948,,Turkey
31.177.0.0/16,39.9957,32.8668,Ankara,Turkey
31.178.0.0/16,50.0585,19.9342,Krakow,Poland
31.179.0.0/16,52.2296,21.0067,Warsaw,Poland
31.180.0.0/16,44.8952,37.3155,Anapa,Russia
31.181.0.0/16,51.8196,19.3131,Aleksandrów Łódzki,Poland
31.182.0.0/16,51.7737,19.4767,Lodz,Poland
31.183.0.0/16,51.6518,-0.1933,Barnet,United Kingdom
31.185.0.0/16,50.916,-1.4993,Southampton,United Kingdom
31.186.0.0/16,53.323,-6.3159,Dublin,Ireland
31.187.0.0/16,51.9081,4.4561,Rotterdam,Netherlands
31.188.0.0/16,45.4722,9.1922,Milan,Italy
31.190.0.0/16,45.4722,9.1922,Milan,Italy
31.191.0.0/16,42.2281,43.9664,Ts'khinvali,Georgia
31.192.0.0/16,43.8543,11.1622,Calenzano,Italy
31.193.0.0/16,45.7049,9.6698,Bergamo,Italy
31.194.0.0/16,43.5252,11.5724,Montevarchi,Italy
31.195.0.0/16,45.7908,9.9308,Ranzanico,Italy
31.196.0.0/16,43.847,10.5018,Lucca,Italy
31.197.0.0/16,39.9205,32.8372,Ankara,Turkey
31.199.0.0/16,41.0145,28.9533,Istanbul,Turkey
31.200.0.0/16,54.1996,-6.8385,Clontibret,Ireland
31.201.0.0/16,52.3019,5.264,Huizen,Netherlands
31.202.0.0/16,45.4722,9.1922,Milan,Italy
31.204.0.0/16,51.7639,-0.2236,Hatfield,United Kingdom
31.205.0.0/16,54.9836,-1.5895,Newcastle upon Tyne,United Kingdom
31.206.0.0/16,41.3238,36.2017,Atakum,Turkey
31.207.0.0/16,55.0389,60.0989,Miass,Russia
31.208.0.0/16,57.7132,12.9025,Borås,Sweden
31.209.0.0/16,64.0661,-21.962,Hafnarfjordur,Iceland
31.210.0.0/16,56.4911,84.9949,Tomsk,Russia
31.211.0.0/16,59.271,17.8914,Stockholm,Sweden
31.212.0.0/16,29.3165,48.0828,Ar Rumaythiyah,Kuwait
31.213.0.0/16,29.3645,47.9889,Kuwait City,Kuwait
31.214.0.0/16,24.19,55.7623,Al Ain City,United Arab Emirates
31.215.0.0/16,55.4961,-4.4012,Mauchline,United Kingdom
31.216.0.0/16,46.7541,12.1069,Welsberg-Taisten,Italy
31.217.0.0/16,52.6596,-7.2546,Kilkenny,Ireland
31.218.0.0/16,51.2993,9.491,,Germany
31.220.0.0/16,51.5828,-0.3448,London,United Kingdom
31.221.0.0/16,55.9552,-3.2,Edinburgh,United Kingdom
31.222.0.0/16,41.0529,29.0013,Istanbul,Turkey
31.223.0.0/16,51.6172,5.4325,Schijndel,Netherlands
32.22.0.0/16,1.3673,103.8014,,Singapore
32.42.0.0/16,37.751,-97.822,,United States
32.60.0.0/16,51.2993,9.491,,Germany
32.97.0.0/16,37.751,-97.822,,United States
32.112.0.0/16,51.5893,-2.9931,Newport,United Kingdom
32.114.0.0/16,37.751,-97.822,,United States
32.115.0.0/16,37.751,-97.822,,United States
32.116.0.0/16,37.751,-97.822,,United States
32.118.0.0/16,33.3555,-86.8274,Birmingham,United States
32.0.0.0/8,39.7531,-84.2507,Dayton,United States
32.132.0.0/16,33.7256,-117.9119,Santa Ana,United States
32.140.0.0/16,30.4304,-91.0353,Baton Rouge,United States
32.141.0.0/16,35.8332,-78.8473,Morrisville,United States
32.142.0.0/16,41.7017,-86.2913,South Bend,United States
32.143.0.0/16,37.7308,-122.3838,San Francisco,United States
32.208.0.0/16,41.5317,-72.7949,Meriden,United States
32.209.0.0/16,41.136,-73.406,Norwalk,United States
32.211.0.0/16,41.8501,-72.4649,Rockville,United States
32.212.0.0/16,41.5774,-73.0245,Waterbury,United States
32.213.0.0/16,41.3296,-72.9678,New Haven,United States
32.215.0.0/16,41.7681,-73.0665,Harwinton,United States
32.216.0.0/16,41.5774,-73.0245,Waterbury,United States
32.217.0.0/16,41.6026,-72.9765,Wolcott,United States
32.218.0.0/16,41.5538,-73.063,Waterbury,United States
32.219.0.0/16,41.5317,-72.7949,Meriden,United States
32.220.0.0/16,41.5538,-73.063,Waterbury,United States
32.221.0.0/16,37.751,-97.822,,United States
33.37.0.0/16,37.751,-97.822,,United States
33.145.0.0/16,32.8608,-79.9746,North Charleston,United States
34.0.0.0/8,25.0504,121.5324,Taipei,Taiwan
34.73.0.0/16,35.6893,139.6899,Tokyo,Japan
34.80.0.0/16,-33.8715,151.2006,Sydney,Australia
34.84.0.0/16,22.2908,114.1501,Central,Hong Kong
34.87.0.0/16,19.0748,72.8856,Mumbai,India
34.92.0.0/16,34.024,-84.2396,Alpharetta,United States
34.93.0.0/16,-33.8715,151.2006,Sydney,Australia
34.95.0.0/16,-36.8506,174.7679,Auckland,New Zealand
34.99.0.0/16,44.2433,-88.3564,Appleton,United States
34.100.0.0/16,40.2783,-111.7198,Orem,United States
34.103.0.0/16,45.3576,-84.9088,Petoskey,United States
34.104.0.0/16,1.2929,103.8547,,Singapore
34.124.0.0/16,1.2929,103.8547,,Singapore
34.126.0.0/16,45.5999,-121.1871,The Dalles,United States
34.143.0.0/16,39.0469,-77.4903,Ashburn,United States
34.157.0.0/16,39.0469,-77.4903,Ashburn,United States
34.194.0.0/16,39.0469,-77.4903,Ashburn,United States
34.196.0.0/16,39.0469,-77.4903,Ashburn,United States
34.198.0.0/16,45.8234,-119.7257,Boardman,United States
34.203.0.0/16,45.8234,-119.7257,Boardman,United States
34.208.0.0/16,45.8234,-119.7257,Boardman,United States
34.211.0.0/16,39.0469,-77.4903,Ashburn,United States
34.217.0.0/16,38.0278,-107.6733,Ouray,United States
34.225.0.0/16,39.0469,-77.4903,Ashburn,United States
34.231.0.0/16,39.0469,-77.4903,Ashburn,United States
34.234.0.0/16,42.2314,-83.6344,Ypsilanti,United States
34.239.0.0/16,42.2709,-83.7268,Ann Arbor,United States
35.0.0.0/16,42.2709,-83.7268,Ann Arbor,United States
35.1.0.0/16,42.2804,-83.7325,Ann Arbor,United States
35.2.0.0/16,42.3068,-83.7059,Ann Arbor,United States
35.3.0.0/16,42.3068,-83.7059,Ann Arbor,United States
35.7.0.0/16,42.7367,-84.4758,East Lansing,United States
35.8.0.0/16,42.6426,-84.5221,Holt,United States
35.10.0.0/16,37.751,-97.822,,United States
35.13.0.0/16,42.4736,-83.5186,Novi,United States
35.16.0.0/16,42.4658,-82.9459,Eastpointe,United States
35.20.0.0/16,42.7367,-84.4758,East Lansing,United States
35.21.0.0/16,42.7367,-84.4758,East Lansing,United States
35.22.0.0/16,44.7603,-85.618,Traverse City,United States
35.23.0.0/16,46.5778,-87.4552,Marquette,United States
35.24.0.0/16,45.7664,-87.8172,Vulcan,United States
35.25.0.0/16,43.1757,-83.8771,Montrose,United States
35.32.0.0/16,43.8247,-84.7593,Clare,United States
35.40.0.0/16,42.9656,-85.65,Grand Rapids,United States
35.46.0.0/16,42.6919,-83.0558,Utica,United States
35.50.0.0/16,42.2807,-83.7801,Ann Arbor,United States
35.63.0.0/16,42.3327,-83.0495,Detroit,United States
35.83.0.0/16,42.3761,-83.0775,Detroit,United States
35.128.0.0/16,42.3455,-83.0535,Detroit,United States
35.129.0.0/16,38.6433,-90.2575,St Louis,United States
35.130.0.0/16,38.731,-90.1097,Granite City,United States
35.131.0.0/16,47.5112,-111.266,Great Falls,United States
35.132.0.0/16,35.6355,-82.5645,Asheville,United States
35.133.0.0/16,38.5943,-90.2321,St Louis,United States
35.134.0.0/16,38.1598,-92.5796,Kaiser,United States
35.135.0.0/16,32.3151,-86.2449,Montgomery,United States
35.136.0.0/16,27.8895,-82.2421,Valrico,United States
35.137.0.0/16,27.4978,-82.4088,Bradenton,United States
35.138.0.0/16,27.8402,-82.6493,St. Petersburg,United States
35.139.0.0/16,28.0684,-82.7593,Palm Harbor,United States
35.140.0.0/16,28.1451,-82.5132,Lutz,United States
35.141.0.0/16,28.0084,-82.6951,Safety Harbor,United States
35.142.0.0/16,27.9032,-82.2911,Brandon,United States
35.143.0.0/16,28.4797,-82.5562,Spring Hill,United States
35.144.0.0/16,28.4932,-81.2878,Orlando,United States
35.145.0.0/16,31.1993,-97.9304,Copperas Cove,United States
35.146.0.0/16,30.0032,-97.8397,Kyle,United States
35.147.0.0/16,45.7045,-89.3866,Rhinelander,United States
35.148.0.0/16,35.4875,-81.1755,Lincolnton,United States
35.149.0.0/16,33.1452,-97.0699,Denton,United States
35.150.0.0/16,33.5325,-83.8547,Covington,United States
35.151.0.0/16,39.0469,-77.4903,Ashburn,United States
35.153.0.0/16,39.0469,-77.4903,Ashburn,United States
35.157.0.0/16,39.0469,-77.4903,Ashburn,United States
35.168.0.0/16,39.0469,-77.4903,Ashburn,United States
35.172.0.0/16,45.4995,-73.5848,Montreal,Canada
35.175.0.0/16,1.2929,103.8547,,Singapore
35.182.0.0/16,33.5325,-83.8547,Covington,United States
35.187.0.0/16,-23.5335,-46.6359,São Paulo,Brazil
35.192.0.0/16,61.0636,28.189,Lappeenranta,Finland
35.198.0.0/16,50.8534,4.347,Brussels,Belgium
35.203.0.0/16,-23.5335,-46.6359,São Paulo,Brazil
35.210.0.0/16,45.5999,-121.1871,The Dalles,United States
35.220.0.0/16,25.0504,121.5324,Taipei,Taiwan
35.230.0.0/16,37.4043,-122.0748,Mountain View,United States
35.235.0.0/16,22.2908,114.1501,Central,Hong Kong
35.241.0.0/16,38.894,-77.0365,Washington,United States
35.243.0.0/16,35.7301,139.6494,Nakano,Japan
35.245.0.0/16,35.6887,139.745,Chiyoda-ku,Japan
36.2.0.0/16,35.8027,139.7161,Kawaguchi,Japan
36.3.0.0/16,36.4034,139.0844,Maebashi,Japan
36.6.0.0/16,42.6417,141.5714,Tomakomai,Japan
36.8.0.0/16,35.6212,139.4978,Takaishi,Japan
36.10.0.0/16,35.774,139.6726,Nishidai,Japan
36.12.0.0/16,35.457,139.4743,Minamidai,Japan
36.13.0.0/16,35.8292,139.6789,Nishikicho,Japan
36.14.0.0/16,35.4343,139.6466,Yokohama,Japan
36.19.0.0/16,30.2994,120.1612,Hangzhou,China
36.24.0.0/16,34.7732,113.722,,China
36.28.0.0/16,0.1328,117.4856,Bontang,Indonesia
36.34.0.0/16,13.0,105.0,,Cambodia
36.37.0.0/16,37.4585,126.7015,Incheon,South Korea
36.38.0.0/16,36.7744,126.4514,Seosan City,South Korea
36.39.0.0/16,34.2285,108.9157,Beilin,China
36.40.0.0/16,34.3993,132.4702,Hiroshima,Japan
36.46.0.0/16,36.5651,139.893,Utsunomiya,Japan
36.52.0.0/16,34.0668,134.5636,Tokushima,Japan
36.53.0.0/16,31.7279,116.5157,Lu'an,China
36.54.0.0/16,31.3325,118.3699,Wuhu,China
36.56.0.0/16,30.5182,117.0534,Anqing,China
36.60.0.0/16,-7.5533,110.831,Surakarta,Indonesia
36.63.0.0/16,-6.5923,110.6729,Jepara,Indonesia
36.65.0.0/16,-6.8236,107.1383,Cianjur,Indonesia
36.66.0.0/16,-6.2114,106.8446,Jakarta,Indonesia
36.67.0.0/16,-7.4702,110.2213,Magelang,Indonesia
36.68.0.0/16,-6.2114,106.8446,Jakarta,Indonesia
36.69.0.0/16,-6.9217,107.6071,Bandung,Indonesia
36.70.0.0/16,-6.5945,106.789,Bogor,Indonesia
36.71.0.0/16,-6.2114,106.8446,Jakarta,Indonesia
36.72.0.0/16,-6.2114,106.8446,Jakarta,Indonesia
36.73.0.0/16,-7.2484,112.7419,Surabaya,Indonesia
36.74.0.0/16,-7.2484,112.7419,Surabaya,Indonesia
36.75.0.0/16,3.5847,98.6629,Medan,Indonesia
36.76.0.0/16,-2.9146,104.7535,Palembang,Indonesia
36.77.0.0/16,-6.9217,107.6071,Bandung,Indonesia
36.78.0.0/16,-6.9217,107.6071,Bandung,Indonesia
36.79.0.0/16,-5.4291,105.2615,Bandar Lampung,Indonesia
36.80.0.0/16,-7.7194,110.3571,Sleman,Indonesia
36.81.0.0/16,-7.2484,112.7419,Surabaya,Indonesia
36.82.0.0/16,-5.152,119.437,Makassar,Indonesia
36.83.0.0/16,-6.2352,106.9922,Bekasi,Indonesia
36.84.0.0/16,-6.1642,106.7718,Kampungbali,Indonesia
36.85.0.0/16,-6.9217,107.6071,Bandung,Indonesia
36.88.0.0/16,-6.2352,106.9922,Bekasi,Indonesia
36.89.0.0/16,-6.2114,106.8446,Jakarta,Indonesia
36.90.0.0/16,-6.1992,106.818,Kebon Melati,Indonesia
36.91.0.0/16,-6.9217,107.6071,Bandung,Indonesia
36.92.0.0/16,-6.1996,106.8325,Menteng,Indonesia
36.93.0.0/16,-6.2114,106.8446,Jakarta,Indonesia
36.94.0.0/16,38.036,114.4654,Shijiazhuang,China
36.95.0.0/16,39.1488,117.1762,Tianjin,China
36.98.0.0/16,34.7732,113.722,,China
36.106.0.0/16,40.7846,114.8559,Zhangjiakou,China
36.113.0.0/16,31.5618,120.2864,Wuxi,China
36.143.0.0/16,28.2014,112.9611,Changsha,China
36.149.0.0/16,34.7732,113.722,,China
36.157.0.0/16,25.0504,121.5324,Taipei,Taiwan
36.162.0.0/16,25.0504,121.5324,Taipei,Taiwan
36.224.0.0/16,25.0504,121.5324,Taipei,Taiwan
36.225.0.0/16,24.9889,121.3176,Taoyuan District,Taiwan
36.226.0.0/16,25.0504,121.5324,Taipei,Taiwan
36.227.0.0/16,24.9889,121.3176,Taoyuan District,Taiwan
36.228.0.0/16,24.9614,121.2437,Zhongli District,Taiwan
36.229.0.0/16,24.9466,121.586,New Taipei,Taiwan
36.230.0.0/16,24.9614,121.2437,Zhongli District,Taiwan
36.231.0.0/16,22.6148,120.3139,Kaohsiung City,Taiwan
36.232.0.0/16,24.144,120.6844,Taichung,Taiwan
36.233.0.0/16,24.583,120.8211,Beimiao,Taiwan
36.234.0.0/16,23.4633,120.5817,Chiayi County,Taiwan
36.236.0.0/16,22.9917,120.2148,Tainan City,Taiwan
36.237.0.0/16,22.6148,120.3139,Kaohsiung City,Taiwan
36.238.0.0/16,25.4394,119.0103,Putian,China
